# 
# Header Description:
# 
# Version: v2.0.0.1 Platform: 9 Manufacturer: samsung Model: SM-A507FN
# 
# Raw,ElapsedRealtimeMillis,TimeNanos,LeapSecond,TimeUncertaintyNanos,FullBiasNanos,BiasNanos,BiasUncertaintyNanos,DriftNanosPerSecond,DriftUncertaintyNanosPerSecond,HardwareClockDiscontinuityCount,Svid,TimeOffsetNanos,State,ReceivedSvTimeNanos,ReceivedSvTimeUncertaintyNanos,Cn0DbHz,PseudorangeRateMetersPerSecond,PseudorangeRateUncertaintyMetersPerSecond,AccumulatedDeltaRangeState,AccumulatedDeltaRangeMeters,AccumulatedDeltaRangeUncertaintyMeters,CarrierFrequencyHz,CarrierCycles,CarrierPhase,CarrierPhaseUncertainty,MultipathIndicator,SnrInDb,ConstellationType,AgcDb,CarrierFrequencyHz
# 
# Fix,Provider,Latitude,Longitude,Altitude,Speed,Accuracy,(UTC)TimeInMs
# 
# Nav,Svid,Type,Status,MessageId,Sub-messageId,Data(Bytes)
# 
Nav,5,769,0,2,2,-127,-127,-127,0,-127,-127,-127,0,-127,-127,-127,0,0,-56,77,1
Nav,13,257,0,3,4,1,1,1,1,1,1,1,1,119,63,-26,96,66,-82,121,-44,51,96,31,-118,83,-53,19,-6,-76,-31,3,-63,-112,-62,16,60,51,-61,38,47,38,-113,-125,-38
Nav,28,257,0,30,4,1,1,1,1,1,1,1,1,0,98,-85,39,-20,121,-15,60,-101,-35,36,3,0,-29,-73,-36,116,-66,-40,53,105,28,13,5,31,109,-21,107,-61,36,-26,-33
Nav,15,257,0,63,4,1,1,1,1,1,1,1,1,-40,-39,-14,15,-67,110,-32,59,120,-64,-14,116,51,-49,83,1,-54,98,3,-34,114,-51,-30,-87,-99,115,126,-108,-53,-79,-29,105
Nav,13,257,0,7,5,-81,-19,108,-112,65,-34,47,-5,-34,93,-64,81,54,90,109,-90,-122,-61,98,-111,-91,-116,20,-127,-113,-124,-89,64,51,105,-30,-41,33,110,64,-14,97,22,-60,115
Nav,28,257,0,58,5,47,55,-22,-36,27,48,-124,-2,5,25,-85,-18,-43,26,65,95,64,-113,-31,114,-25,-93,115,28,-101,-86,73,-3,-84,-13,54,-17,65,-33,-96,23,66,-36,-22,75
Nav,15,257,0,2,5,26,110,-96,-26,-48,-38,62,-102,-82,14,-89,32,-70,-8,-62,-85,17,-8,-108,-94,-105,-45,-128,67,-115,-18,-25,-22,93,64,-94,116,-52,-83,65,67,-66,76,-112,39
Nav,15,257,0,-1,1,-5,75,63,-67,11,103,-40,-22,-26,-64,88,-27,-19,5,21,-69,-78,-16,-96,76,85,43,-25,-75,-98,46,125,67,-62,93,-94,-122,-64,-83,-100,-107,39,-7,110,7
Nav,15,769,0,2,11,-8,-128,-86,0,66,71,-77,0,-24,1,120,0,0,-128,-101,0
Nav,15,769,0,2,12,-101,116,-80,0,-94,-81,-4,0,10,-46,-115,1,0,108,105,0
Nav,5,769,0,2,13,34,16,22,0,-95,-65,55,1,-89,-94,79,0,0,-128,50,1
Nav,15,769,0,2,13,18,28,-30,0,-32,-1,110,1,37,-77,30,0,0,-112,50,1
Nav,15,257,0,-1,2,-98,-124,25,-20,-20,28,117,-109,94,-76,-114,53,-119,56,10,-73,94,112,-104,82,-65,-50,3,-74,107,25,-40,-40,-18,69,-127,-44,-75,-7,32,-66,102,-102,16,111
Nav,5,769,0,2,14,-96,84,-34,0,50,-5,29,1,47,-119,-73,0,0,0,66,0
Nav,15,769,0,2,14,34,-26,-34,0,-29,-109,-11,1,-83,-119,-73,0,0,-100,-13,1
Nav,5,769,0,2,15,66,48,-38,0,2,-119,-84,1,123,-63,88,0,0,-124,-117,0
Nav,15,769,0,2,15,-30,-30,-6,0,-94,73,-81,1,72,-109,57,0,0,0,32,0
Nav,5,769,0,3,1,-95,39,58,0,-61,-67,30,1,0,-117,4,0,0,-92,-56,1
Nav,15,769,0,3,1,-95,6,-25,0,115,-79,31,1,-3,11,4,0,0,68,108,1
Nav,15,257,0,-1,3,99,-51,-72,-95,39,101,-89,-5,-38,14,-59,-3,-54,-116,-80,-66,104,72,15,-110,62,-123,57,37,14,76,-113,-118,87,5,120,-67,59,40,-43,-62,-32,30,4,-42
Nav,19,1281,0,103,1,-29,22,17,57,63,-97,119,62,-41,-123,-58,5,-42,125,96,58,90,119,-44,26,34,55,36,15,-47,-51,122,57,88,25,-40,33,-33,-11,12,46,108,-36,-5,38
Nav,5,769,0,3,2,-111,96,3,0,-110,63,-58,0,-65,-20,7,1,0,-64,48,0
Nav,15,769,0,3,2,26,-87,30,0,-75,-14,25,1,-27,-109,72,1,0,-116,29,0
Nav,5,769,0,3,3,-54,16,-69,0,109,3,-81,1,98,103,-73,0,0,-52,44,0
Nav,15,769,0,3,3,-114,-5,106,0,74,-23,100,0,-119,97,119,0,0,0,24,0
Nav,5,769,0,3,4,98,1,-104,0,5,-29,87,1,-53,-71,115,1,0,80,-58,0
Nav,15,769,0,3,4,105,-128,58,0,-125,6,17,1,22,-38,-97,1,0,-128,10,1
Nav,15,257,0,44,4,38,-53,27,61,26,-43,19,-102,-74,17,34,-101,-45,-68,-119,-82,110,-77,23,-22,19,78,91,-71,-9,-82,-58,-15,88,-64,-21,-59,-71,44,-49,60,103,-66,20,68
Nav,19,1281,0,98,5,10,87,112,48,111,-117,89,44,-26,-53,-117,61,-110,51,-42,63,-7,56,108,9,-5,-111,-46,40,-14,-26,93,49,-113,-21,98,21,76,-48,14,40,98,-42,-114,30
Nav,5,769,0,3,5,113,20,106,0,0,9,-116,1,-127,40,25,0,0,-124,-107,1
Nav,15,769,0,3,5,57,115,100,0,2,54,-114,0,-113,15,-119,0,0,-128,-106,0
Nav,5,769,0,3,6,0,9,86,0,0,0,0,1,52,6,-30,0,0,0,105,0
Nav,15,769,0,3,6,-128,6,-30,0,97,-94,12,0,20,9,-14,1,0,84,90,0
Nav,5,769,0,3,7,43,-80,106,0,-127,-41,40,0,88,97,2,1,0,-124,65,1
Nav,15,257,0,32,5,-127,60,52,-33,-25,71,-60,90,22,42,51,-24,-35,-54,-4,-124,-15,-1,-79,102,-107,-11,119,111,3,-128,-56,111,-13,126,-57,-18,121,-40,-75,-27,-25,39,-45,123
Nav,19,1281,0,58,4,9,77,-112,38,-3,-23,118,21,24,116,-63,7,-37,-1,-112,45,73,-14,25,56,39,29,-85,50,75,-50,104,3,-63,-53,26,1,-21,23,-79,53,-124,-3,-108,45
Nav,5,769,0,3,8,34,89,126,0,-45,-109,-22,1,-16,-16,1,0,0,-128,59,0
Nav,5,769,0,3,9,-89,-56,-118,0,-62,66,-102,0,79,-31,122,0,0,0,-89,1
Nav,5,769,0,3,10,20,53,19,0,-37,72,68,0,-1,48,23,0,0,-124,-15,0
Nav,19,1281,0,111,1,-108,-106,80,7,44,-65,57,5,0,-108,-113,60,-86,-25,-113,43,-116,-61,91,19,-96,-97,-4,2,-1,112,-58,42,-101,70,54,48,34,-88,-50,63,-2,122,116,45
Nav,5,769,0,3,11,1,-80,-94,0,-77,115,-108,0,19,-30,83,0,0,64,-70,1
Nav,5,769,0,3,12,101,-82,-68,0,83,52,-75,1,19,-7,-44,0,0,-120,126,0
Nav,5,769,0,3,13,-116,-104,-57,0,-71,-19,-128,1,-123,-30,-82,1,0,-124,83,1
Nav,19,1281,0,102,6,-14,-27,-65,16,7,-101,-61,0,-51,-31,-59,54,97,-2,-44,28,68,-50,-103,6,-114,-34,67,52,-109,-43,81,2,12,-15,115,57,109,-18,69,44,46,-112,120,37
Nav,5,769,0,3,14,103,59,83,0,-13,-83,88,1,-52,-45,19,1,0,-124,121,1
Nav,5,769,0,3,15,-15,90,-22,0,-62,37,108,1,4,-63,71,0,0,-128,3,0
Nav,5,769,1,3,15,-105,11,-4,0,-45,80,-79,1,-32,-96,1,0,0,0,78,0
Nav,5,769,0,4,2,40,41,16,0,-109,-66,-124,1,116,-110,12,1,0,4,45,0
Nav,5,769,0,4,3,1,42,33,0,-96,-31,-23,1,115,50,-97,0,0,-128,59,0
Nav,5,769,0,4,3,98,1,56,0,99,98,94,1,-118,73,119,1,0,-44,-45,0
Nav,5,769,1,4,5,113,60,72,0,0,0,12,1,-123,32,25,0,0,-128,-108,0
Nav,5,769,0,4,5,33,9,19,0,16,20,4,0,92,69,-72,0,0,-60,-22,0
Nav,5,769,0,4,6,-120,-116,5,0,-37,-27,61,1,89,102,46,1,0,-64,86,1
Nav,5,769,0,4,7,-97,-83,-91,0,18,-69,79,0,-49,40,62,1,0,-112,44,1
Nav,5,769,0,4,8,123,27,13,0,75,28,-102,0,-92,-32,114,1,0,-4,35,0
Nav,5,769,0,4,9,49,123,-97,0,-46,82,-128,1,-70,44,-63,0,0,4,36,0
Nav,5,769,0,4,10,52,40,-85,0,3,113,55,1,10,67,-19,1,0,-124,-111,1
Nav,5,769,1,4,11,-127,10,-71,0,-46,55,72,0,-66,-76,-3,1,0,0,93,1
Nav,5,769,0,4,12,116,48,-53,0,-124,16,-48,0,72,-32,17,0,0,4,43,1
Nav,5,769,0,4,13,2,126,-41,0,-45,-3,-113,0,-79,-116,0,1,0,-64,69,1
Nav,5,769,0,4,14,-68,65,-53,0,-124,-64,74,0,-61,36,-125,0,0,0,-117,0
Nav,5,769,0,4,15,74,7,-5,0,-38,-71,79,0,-15,84,-114,1,0,-76,-15,0
Nav,5,769,0,5,1,-4,42,52,0,-64,22,14,1,120,-62,-25,0,0,-44,-96,0
Nav,5,769,0,5,2,82,-71,-110,0,-19,-14,20,1,67,103,-108,0,0,76,54,1
Nav,5,769,0,5,3,121,46,-80,0,-29,102,95,1,-118,107,-9,1,0,-120,-107,0
Nav,5,769,0,5,4,65,13,74,0,0,65,12,1,-115,36,17,0,0,-120,-108,0
Nav,5,769,0,5,5,0,8,82,0,0,4,32,0,20,0,-94,0,0,4,105,0
Nav,5,769,0,5,6,-94,80,107,0,-61,36,63,0,31,96,-62,1,0,0,97,0
Nav,13,257,0,4,5,1,1,1,1,1,1,1,1,1,1,1,1,1,1,1,1,1,1,1,1,1,1,1,1,-49,47,58,0,0,24,-82,-62,-100,-112,127,51,71,-90,-28,20
Nav,5,769,0,5,7,4,-86,117,0,-46,81,-9,1,-110,116,-5,1,0,36,6,0
Nav,5,769,0,5,8,78,96,-125,0,52,106,-79,0,-14,-119,71,0,0,0,-12,1
Nav,5,769,0,5,9,-106,-112,-112,0,-12,-64,81,0,-80,-76,118,1,0,-124,10,1
Nav,13,257,0,-1,1,97,17,76,-63,-27,87,35,113,67,-34,45,125,88,-128,54,-62,-46,-11,106,56,59,-117,10,-82,3,40,-112,-3,75,-6,-114,-9,9,81,-45,-41,-63,22,126,108
Nav,5,769,0,5,10,-34,-12,-88,0,60,109,-119,1,100,0,52,0,0,-120,38,0
Nav,5,769,0,5,11,35,54,-89,0,-65,-25,16,1,38,-91,-2,1,0,-92,54,1
Nav,5,769,0,5,12,50,-62,-68,0,29,70,-95,1,-55,-77,110,1,0,-64,89,1
Nav,13,257,0,-1,2,-125,47,59,106,-11,-113,-51,-61,-12,98,-21,114,75,-29,-49,26,-43,-82,-67,-63,-126,102,34,77,45,104,-28,-72,-6,-20,-81,126,47,26,103,-96,-93,-77,83,-59
Nav,5,769,0,5,13,-34,-59,78,0,-122,-61,110,1,-77,60,-16,1,0,-24,41,0
Nav,5,769,0,5,14,39,-9,109,0,112,5,-127,1,0,-96,-104,0,0,-12,106,0
Nav,5,769,0,5,15,0,0,-12,0,0,0,0,0,0,-128,17,0,0,0,48,0
Nav,13,257,0,-1,3,-83,76,98,-37,20,-63,42,67,105,120,10,18,44,-60,-127,79,-60,70,3,56,-42,97,-30,13,-119,67,0,-69,61,31,84,77,-48,109,-75,116,-103,114,-115,30
Nav,5,769,0,1,1,72,41,20,0,-109,-74,-124,1,116,-110,12,0,0,-108,44,0
Nav,5,769,0,1,2,0,42,49,0,-88,97,-56,1,115,50,-98,0,0,-124,59,0
Nav,5,769,0,1,3,106,3,40,0,99,98,94,1,-118,73,118,1,0,64,-37,0
Nav,5,769,0,1,4,81,28,98,0,16,0,8,0,-98,40,91,1,0,-108,20,1
Nav,5,769,0,1,5,112,72,65,0,68,6,-126,0,20,64,-8,0,0,-124,-20,0
Nav,5,769,0,1,6,-127,0,-2,0,-53,88,34,0,5,119,-102,1,0,-32,123,1
Nav,5,769,0,1,7,-94,-41,-21,0,63,-94,-102,0,50,-19,75,0,0,124,47,1
Nav,5,769,0,1,8,-43,-7,9,0,-54,-124,-125,1,-55,55,-107,0,0,0,-108,1
Nav,5,769,0,1,9,-62,-2,-107,0,-62,-45,116,0,46,-44,126,1,0,-128,63,0
Nav,13,257,0,-1,1,1,1,1,1,91,3,0,0,-11,27,-80,-54,117,7,-62,101,-123,108,29,78,-23,-35,48,117,-19,6,125,70,114,72,-100,122,-69,31,-121,-79,-112,23,98,-39
Nav,5,769,0,1,10,9,56,-86,0,2,-34,10,1,-82,33,109,0,0,-124,-3,0
Nav,5,769,0,1,11,-13,-85,-67,0,-48,11,-88,0,2,-20,-2,1,0,4,15,1
Nav,5,769,0,1,12,57,72,-54,0,2,-88,-108,0,-54,68,83,1,0,4,50,0
Nav,5,769,0,1,13,-92,107,-33,0,-46,-2,-108,1,3,-116,-1,1,0,0,96,0
Nav,5,769,0,1,14,60,88,-22,0,-94,51,-1,0,122,64,94,1,0,4,-77,1
Nav,5,769,0,1,15,85,-41,-17,0,-45,-44,-73,1,25,95,10,0,0,0,-116,1
Nav,5,769,0,2,1,49,89,32,0,74,23,89,0,-93,88,-106,1,0,96,3,1
Nav,5,769,0,2,2,-4,-114,-5,0,-22,30,104,1,91,-119,-79,1,0,-20,-25,0
Nav,5,769,0,2,3,-18,39,82,0,87,6,-50,1,-20,121,-52,1,0,4,48,0
Nav,13,257,0,4,4,1,1,1,1,1,1,1,1,1,1,1,1,1,1,1,1,1,1,1,1,1,1,1,1,-27,-107,1,0,124,-79,58,118,65,41,-118,23,32,74,32,113
Nav,5,769,0,2,4,-77,-67,80,0,-96,39,44,0,-59,39,29,0,0,-60,50,0
Nav,5,769,0,2,5,0,9,-46,0,0,0,3,0,20,16,-96,0,0,64,105,0
Nav,5,769,0,2,6,-64,104,106,0,-63,75,-110,1,-76,-128,6,1,0,4,-22,0
Nav,13,257,0,30,5,120,-77,-125,26,75,50,-121,10,21,35,-74,-9,-91,-26,86,95,-32,47,-127,124,90,-108,-128,55,119,-87,54,-77,85,-110,-69,-45,-52,-126,-99,95,-4,-5,-34,22
Nav,5,769,1,2,7,-73,-32,117,0,-46,-85,62,0,46,-72,-2,1,0,-128,87,0
Nav,5,769,0,2,8,44,112,-118,0,-62,-28,36,1,109,-31,114,0,0,0,110,1
Nav,5,769,0,2,9,56,-85,-99,0,-46,100,-93,0,34,-64,-2,1,0,-60,126,1
Nav,13,257,0,-1,1,99,-60,63,50,-95,7,-92,-12,-91,-1,107,91,-101,83,9,106,65,-28,127,-48,87,-39,-122,87,113,116,95,-1,42,14,47,82,9,-117,97,-113,99,-12,46,113
Nav,5,769,0,2,10,56,-128,-86,0,98,71,-67,0,-50,65,-80,0,0,64,27,0
Nav,5,769,0,2,11,-51,116,-68,0,-106,125,-5,0,68,-48,127,1,0,-112,-122,1
Nav,5,769,0,2,12,-125,-100,-45,0,73,-71,51,1,37,-32,71,0,0,64,-98,1
Nav,5,769,0,2,13,46,-60,-4,0,-36,-94,87,1,41,-119,55,1,0,96,-94,0
Nav,5,769,0,2,14,66,96,-30,0,-126,-56,-78,1,106,-103,-104,0,0,-124,-56,0
Nav,5,769,0,2,15,-95,7,-8,0,-45,-75,62,1,60,-119,4,0,0,4,74,1
Nav,13,257,0,-1,3,1,1,1,1,1,1,1,1,1,1,1,1,1,1,1,1,1,1,1,1,1,1,1,1,1,1,1,1,1,1,1,1,1,1,1,1,7,0,0,0
Nav,5,769,1,3,1,104,41,16,0,-109,-74,-124,1,116,-110,12,1,0,0,76,0
Nav,5,769,1,3,2,1,42,33,0,-96,97,-24,1,115,50,-97,0,0,-128,59,0
Nav,13,257,0,32,4,38,-77,37,-29,59,100,34,-72,16,-88,15,-24,110,-108,-63,24,-18,33,69,-72,23,-58,-61,-104,-92,-1,-35,-26,33,-109,25,53,45,92,87,125,101,-107,-17,118
Nav,5,769,0,3,3,98,1,56,0,99,96,94,1,-118,73,119,1,0,4,-45,0
Nav,5,769,1,3,4,113,60,72,0,0,0,12,1,-123,32,25,0,0,-128,-108,0
Nav,5,769,0,3,5,0,10,-46,0,3,0,0,0,20,0,96,0,0,4,-87,1
Nav,13,257,0,25,5,-21,-64,-11,79,87,-86,-97,-25,-12,-47,125,-10,-95,-81,47,63,-50,-9,83,64,60,113,-82,-122,68,85,122,28,-78,-128,68,2,-8,-42,-2,-95,10,9,-90,39
Nav,5,769,0,3,6,59,-80,106,0,-31,-107,-24,0,89,65,50,1,0,-104,-63,0
Nav,5,769,0,3,7,-54,-107,92,0,67,6,122,1,-67,48,74,1,0,-28,55,0
Nav,5,769,0,3,8,-26,-53,98,0,100,-126,-120,1,109,-32,-36,0,0,-108,-97,1
Nav,5,769,0,3,9,20,21,-99,0,81,72,4,0,-1,58,33,0,0,-124,112,1
Nav,13,257,0,-1,1,49,-119,-93,-68,-56,-21,102,122,70,-24,-100,35,48,-21,76,-115,38,-5,-58,1,-107,-42,-5,-101,61,-12,34,78,-38,-77,124,112,55,-11,-65,-128,-96,-121,96,-1
Nav,5,769,1,3,10,51,-48,-86,0,66,-46,21,1,75,0,82,0,0,0,-105,1
Nav,5,769,0,3,11,69,-82,-76,0,-13,-67,-68,0,15,-103,4,0,0,-124,78,0
Nav,5,769,0,3,12,63,-24,-54,0,-127,-34,-100,1,-55,32,-84,1,0,-124,99,1
Nav,13,257,0,20,5,54,-1,66,29,17,-107,-118,-99,-116,71,48,85,64,87,-87,8,-18,-88,0,24,-108,-16,16,-66,-42,119,-17,23,-115,-106,-5,-120,100,-34,-101,92,13,10,-117,43
Nav,5,769,1,3,13,102,35,-35,0,-45,-11,64,1,-20,-40,1,0,0,-128,113,1
Nav,5,769,0,3,14,113,-72,-54,0,-62,55,-3,1,4,-63,71,0,0,-128,11,0
Nav,5,769,0,3,15,-105,11,124,0,-45,-48,-79,1,-48,-93,7,0,0,0,78,0
Nav,13,257,0,-1,3,-25,-87,5,98,-96,43,-71,-22,-8,65,41,32,-89,63,-1,54,37,118,50,-16,-20,73,-127,110,125,-61,-49,23,-107,-51,16,101,122,-83,60,95,32,-48,-106,-71
Nav,5,769,0,4,2,124,41,16,0,-109,119,-108,1,100,-14,44,1,0,-124,19,0
Nav,5,769,0,4,3,17,42,-95,0,-96,-95,104,1,99,50,-54,0,0,-88,41,0
Nav,13,257,0,59,4,-90,-59,-13,17,-40,60,79,-123,83,-33,-16,62,64,57,59,-25,-14,-81,37,48,10,68,-52,-105,-75,-11,41,-117,-95,66,-58,93,2,-57,-72,74,-123,-106,-15,-84
Nav,5,769,0,4,4,84,1,1,0,99,98,86,0,-119,73,119,1,0,0,-45,0
Nav,5,769,0,4,5,48,60,72,0,0,0,12,1,-121,52,9,0,0,-128,-108,0
Nav,5,769,1,4,6,0,9,82,0,0,0,0,0,20,0,-32,0,0,0,105,0
Nav,13,257,0,56,5,6,-43,-114,65,23,-45,29,-76,74,-73,2,-50,43,-118,-62,-88,41,64,-122,-57,-18,-34,64,88,-71,14,-8,-65,-86,51,-25,122,-123,-117,14,-74,99,-69,63,76
Nav,5,769,0,4,7,9,0,107,0,-63,-75,118,1,-78,-126,44,1,0,-128,-32,1
Nav,5,769,1,4,8,121,118,112,0,-46,-74,70,0,-17,40,-2,1,0,-128,12,1
Nav,5,769,1,4,9,123,25,-117,0,67,-48,26,0,4,-31,50,1,0,0,103,0
Nav,13,257,0,-1,1,24,-69,-57,-38,43,70,-62,21,58,-8,53,-64,61,84,7,-119,1,20,-50,82,99,-48,116,101,45,-6,122,-50,-2,76,-111,117,-49,-10,-65,-128,-84,101,102,-31
Nav,5,769,0,4,10,57,123,-97,0,-46,26,-72,1,-16,61,-3,1,0,0,38,0
Nav,5,769,0,4,11,84,40,-117,0,3,-15,55,1,10,81,-7,1,0,-124,-111,1
Nav,5,769,0,4,12,-127,10,57,0,-110,58,72,0,-66,-76,125,0,0,0,92,1
Nav,5,769,0,4,13,116,48,-53,0,-100,40,-59,0,72,-16,-119,0,0,12,59,1
Nav,13,257,0,-1,2,-98,84,-128,36,-92,-67,-68,-107,-30,7,64,14,-68,83,-88,-82,-85,104,-70,19,20,15,-107,-2,90,-52,26,44,2,84,30,-71,42,-87,122,-97,-54,-32,-11,-114
Nav,5,769,0,4,14,66,-66,-105,0,-41,-97,-121,0,-38,-116,0,0,0,0,-127,1
Nav,5,769,0,4,15,-72,65,-37,0,-92,-64,74,0,-64,34,-103,0,0,0,11,1
Nav,5,769,0,5,1,83,-111,-8,0,-38,-71,79,1,-111,54,-2,1,0,-124,16,0
Nav,13,257,0,-1,3,32,-68,48,-82,19,40,10,14,-8,18,10,-5,24,68,14,19,-33,-119,-48,32,91,-9,112,-35,7,5,-47,-5,-88,-1,90,-49,-50,-49,122,60,72,-80,-123,-83
Nav,5,769,0,5,2,-124,41,-112,0,-109,-74,-124,1,116,-110,12,0,0,0,108,0
Nav,5,769,0,5,3,1,42,81,0,-80,-31,-24,1,115,50,-97,0,0,-124,35,0
Nav,5,769,0,5,4,98,1,48,0,97,98,93,1,-118,65,117,1,0,-124,-74,0
Nav,13,257,0,48,4,-32,-75,14,16,-59,-115,77,21,-59,-68,21,108,-58,-79,69,109,75,-45,116,-77,-63,-65,3,-43,-55,-98,-87,73,3,-58,59,94,-33,-82,24,-26,-9,59,-64,-23
Nav,5,769,0,5,5,49,-4,8,0,48,0,4,0,-123,34,27,0,0,-92,-108,0
Nav,5,769,0,5,6,32,9,82,0,2,0,0,0,-107,68,-32,0,0,-128,-7,1
Nav,13,257,0,27,5,88,-119,-121,-54,4,42,-108,5,-14,-120,-63,22,99,82,2,-73,68,-36,-56,-49,-117,24,-110,32,-63,111,90,-23,25,0,66,119,-119,100,83,100,-23,109,-65,64
Nav,5,769,0,5,7,-49,48,123,0,-18,96,52,1,-62,123,114,1,0,-128,66,1
Nav,5,769,0,5,8,-59,3,-97,0,-48,73,-29,1,-18,-47,-17,1,0,108,6,0
Nav,5,769,1,5,9,-114,-31,-64,0,10,118,17,0,53,-64,73,1,0,20,56,0
Nav,5,769,0,5,10,-105,-60,48,0,-102,-126,-4,0,38,-80,-39,1,0,0,18,0
Nav,13,257,0,-1,1,116,76,-82,74,-69,-55,-67,5,4,17,126,-48,-66,39,-121,61,119,-36,63,-95,-68,34,122,-10,102,44,-6,43,33,30,-121,-99,84,-61,-14,69,-38,21,66,39
Nav,5,769,0,5,11,12,41,-85,0,15,-68,105,1,57,105,59,0,0,28,-82,1
Nav,5,769,0,5,12,127,-110,-11,0,-110,57,-110,1,-95,-9,-25,1,0,4,96,1
Nav,5,769,0,5,13,-102,-120,-53,0,18,-61,-102,1,-25,8,43,1,0,48,21,1
Nav,13,257,0,-1,2,13,-44,-60,-80,38,-8,-53,76,60,-20,41,-69,-119,-96,-46,8,-94,-39,5,104,37,27,29,-128,-65,-29,-46,93,26,-52,-58,-53,43,49,9,-111,121,86,30,-60
Nav,5,769,0,5,14,-8,-43,-35,0,-82,83,109,1,51,-100,-3,1,0,-32,99,0
Nav,5,769,0,5,15,-87,-125,37,0,9,5,48,1,17,-99,4,0,0,-64,-78,1
Nav,28,257,0,-1,3,1,1,1,1,1,1,1,1,1,1,1,1,1,1,1,1,1,1,1,1,1,1,1,1,117,-52,2,0,-45,-68,89,95,-83,-23,-23,-53,-16,-49,96,114
Nav,5,769,0,1,1,-106,-89,97,0,-14,-108,-54,1,89,24,46,0,0,92,-125,0
Nav,13,257,0,-1,1,1,1,1,1,1,1,1,1,1,1,1,1,1,1,1,1,-7,123,0,0,-85,-105,-124,94,44,122,61,-50,-21,76,46,10,-57,-7,31,-64,-125,-101,-128,-1
Nav,13,257,0,-1,2,31,-53,59,-35,-96,10,66,-18,124,-122,71,10,1,-28,73,19,-19,-27,28,92,-110,97,-25,97,35,30,-100,-114,-66,-119,-43,-2,-110,22,-28,-116,35,-30,-99,-128
Nav,13,257,0,-1,3,-32,86,63,-62,52,84,-65,21,69,94,19,28,88,62,63,84,32,-10,97,0,100,-54,-113,22,-121,-118,51,28,89,6,110,-39,-74,-68,18,80,-33,39,6,-118
Nav,13,257,0,35,4,31,75,-94,-33,107,-61,-90,-13,-112,56,-13,-24,20,-8,-60,30,122,127,-45,0,-70,109,-29,-73,80,-91,92,-125,-25,-24,-23,22,-128,106,-36,-64,-97,82,80,57
Nav,13,257,0,35,5,-27,-12,63,-35,16,45,65,106,-37,-26,-62,40,127,124,62,-45,-34,119,115,-61,-79,-45,60,-88,-115,-27,55,85,-118,-40,-53,95,-64,68,45,-95,92,-12,-65,51
Nav,12,257,0,-1,1,1,1,1,1,1,1,1,1,1,1,1,1,1,1,1,1,1,1,1,1,1,1,1,1,1,1,1,1,1,1,1,1,1,1,1,1,1,0,0,0
Nav,13,257,0,-1,1,25,123,-64,34,30,9,-68,125,-27,-1,75,-125,-126,35,-57,114,70,-116,-36,-82,82,-41,74,-123,45,-8,114,-82,10,-23,104,74,46,8,0,-128,-93,37,127,-127
Nav,13,257,0,-1,2,-98,78,43,-35,11,-21,-61,-107,114,4,64,-56,-125,-125,86,-73,-38,91,14,-28,-32,40,-17,-116,40,-16,18,28,97,109,110,19,-107,41,104,76,77,31,79,114
Nav,13,257,0,-1,3,103,-75,63,93,-73,75,-97,-21,-103,65,-52,-1,82,23,-63,70,81,118,108,-113,84,-74,-79,90,-66,8,-78,3,-28,-15,-111,-90,73,61,-11,63,63,24,-70,117
Nav,13,257,0,33,4,-104,85,63,-35,-64,108,127,27,17,59,118,24,127,-62,0,103,-104,-32,-74,-64,72,-16,64,40,28,67,47,43,-57,116,-109,45,-24,10,116,-33,16,13,-64,53
Nav,13,257,0,4,5,88,75,-64,34,4,77,-80,21,-5,-41,0,17,6,-101,-65,-25,6,-68,-89,-72,-104,-78,67,-88,71,-80,-5,63,-64,83,25,-25,-64,4,-91,63,3,4,-65,1
Nav,13,257,0,-1,1,24,75,64,-45,48,-87,-65,21,-27,-1,-73,4,2,36,-57,114,-7,11,-34,-82,109,47,-117,122,-42,5,125,78,-6,76,15,-118,-80,-9,-57,-127,-61,88,-128,46
Nav,13,257,0,-1,2,24,75,-64,-14,-112,-54,-65,21,114,-8,127,10,67,-116,87,-117,81,86,-6,-21,100,-127,-21,127,-41,36,-17,19,-126,-105,-21,-8,109,22,100,-125,-52,31,76,111
Nav,13,257,0,-1,3,28,75,-64,34,-32,-22,-116,51,88,-111,50,48,88,-64,15,43,-39,-119,40,14,83,65,78,91,124,-11,53,-4,14,-114,111,57,-114,-36,122,-66,63,98,102,-118
Nav,13,257,0,32,4,-25,84,-64,-33,-122,-84,-35,-11,-100,45,48,-120,-27,92,-62,24,-49,67,78,83,-23,-52,58,-42,27,40,108,84,-28,-124,97,-34,-46,-127,71,2,-65,-1,-65,-67
Nav,12,257,0,4,4,1,1,1,1,1,1,1,1,1,1,1,1,1,1,1,1,1,1,1,1,1,1,1,1,1,1,1,1,1,1,1,1,1,1,1,1,2,0,0,0
Nav,13,257,0,8,5,-42,-116,63,-34,-48,-36,127,-108,54,96,60,18,-123,59,-96,-104,16,-104,-75,94,49,-62,-4,39,91,39,70,89,-117,-51,38,-18,-107,-122,-107,-14,91,8,68,73
Nav,13,257,0,-1,1,-25,-74,-49,-36,12,73,62,-22,-103,-1,75,7,2,92,-64,122,25,-28,-98,-81,121,120,115,106,-83,-3,-98,65,4,-81,-96,117,-50,-9,-1,63,-93,-109,96,-128
Nav,13,257,0,-1,2,119,20,-128,-35,67,106,-64,-37,-10,-40,-66,-11,-125,115,87,-117,65,86,18,-28,108,-32,-120,127,40,-40,112,19,125,-112,107,7,109,-42,27,99,51,-40,76,111
Nav,13,257,0,-1,3,-26,75,59,-35,65,111,-49,-91,71,97,13,64,-96,-49,-48,-56,39,54,27,0,-86,-71,74,-25,108,117,-78,-125,105,14,-110,37,72,61,85,68,63,-24,-71,9
Nav,13,257,0,32,4,24,74,-48,-34,-5,83,-33,21,-101,111,24,-8,-41,-115,77,-28,51,63,-87,-64,53,17,66,-28,24,-63,18,92,36,-82,-127,32,20,-10,50,10,-73,-29,-65,23
Nav,13,257,0,58,5,83,75,60,-46,123,82,-45,-23,-23,-15,-100,-18,-5,50,38,119,-31,1,75,-25,48,-57,60,87,114,-92,11,21,-57,106,-30,-69,29,104,-94,-51,8,-22,-1,112
Nav,13,257,0,-1,1,-27,75,-49,18,-121,-105,-61,107,25,-32,-69,-12,4,36,-49,90,-42,-117,41,46,106,-50,-69,-118,18,61,-115,-79,5,-62,110,-124,-64,3,-76,121,-71,-104,120,7
Nav,13,257,0,-1,2,-26,84,63,113,-97,10,38,-102,-6,5,66,-2,124,-84,41,-117,-47,25,-5,43,-108,-64,-32,94,57,36,-20,19,125,-74,27,119,-110,-43,103,125,63,-30,-80,-112
Nav,13,257,0,-1,3,-25,-68,59,-35,78,-42,0,-22,-91,-18,9,-68,-25,63,3,87,39,114,-17,-1,-37,-74,-79,-30,-125,6,50,-52,-25,-16,-106,-39,-39,-62,42,-64,12,-24,-71,107
Nav,13,257,0,6,4,-25,-108,-97,50,72,51,-66,-11,-80,-41,-89,33,-23,115,-42,37,89,43,-29,107,-51,-124,57,71,-114,-97,108,126,67,64,43,-87,72,-34,-82,-31,92,11,-74,23
Nav,5,257,0,4,4,1,1,1,1,1,1,1,1,1,1,1,1,1,1,1,1,1,1,1,1,0,0,0,0,20,82,-20,89,53,-77,-9,47,-5,89,-40,113,-40,35,-82,-8
Nav,13,257,0,51,5,-25,-76,-49,26,-33,-110,-15,-21,-113,100,-25,-20,7,73,5,-25,-62,-65,-76,-64,10,84,61,-88,21,-85,-28,-115,3,-18,43,107,111,28,74,-3,88,1,-96,-54
Nav,13,257,0,-1,1,-32,20,-50,58,-109,-118,1,2,-27,31,75,-5,-3,-27,70,117,-7,-11,-31,82,-107,-48,-108,66,45,-6,-126,81,-59,-84,-82,117,-49,-25,-1,127,-68,71,-121,-2
Nav,13,257,0,-1,2,-104,75,64,35,-1,85,62,21,-14,7,64,-14,-125,51,86,-117,-47,-87,5,-20,100,-32,-43,127,-44,39,-13,47,-127,-81,-109,24,-99,85,108,124,115,32,-67,96
Nav,13,257,0,-1,3,24,85,63,-35,112,-53,-55,41,-82,-63,-15,0,104,14,-16,-116,-40,-119,-16,1,36,102,78,29,-68,-22,-51,2,-28,49,-110,58,-119,34,-19,7,-48,23,-80,117
Nav,13,257,0,57,4,56,-53,-33,37,52,-84,78,18,31,-105,82,30,90,-12,-103,-7,-48,83,-4,-115,101,-76,41,32,29,100,39,121,-51,126,2,83,-34,2,23,70,51,127,-72,-111
Nav,13,257,0,51,5,24,-73,-1,-62,87,13,-62,21,-68,62,-48,-20,22,-49,-59,24,-27,64,79,-65,100,37,-67,87,106,-21,51,54,88,-48,-7,-117,20,-126,-57,19,51,2,-64,61
Nav,13,257,0,-1,1,16,75,62,-35,-92,41,-62,21,26,4,-76,4,-3,-37,58,-115,6,116,-34,90,-107,-112,116,-123,-115,6,125,78,5,115,95,114,48,8,-4,95,-1,103,113,1
Nav,13,257,0,-1,2,103,75,63,-35,-44,77,98,-26,113,-11,-1,9,124,76,-84,68,46,86,-6,27,-117,-32,20,-128,87,-37,16,-46,1,104,20,-57,-110,41,36,124,51,-32,-76,-112
Nav,13,257,0,-1,3,87,72,62,-35,-84,-5,61,-22,71,97,13,0,-89,63,-1,-56,40,-118,-20,-1,-89,-79,53,29,124,58,8,-4,-26,113,110,37,117,25,10,-128,33,0,72,113
Nav,13,257,0,2,4,-26,4,-52,97,51,-74,-38,-107,88,64,-93,-64,-15,105,57,16,2,-39,116,72,-66,10,-30,-118,30,-30,70,-87,-19,-71,7,-98,-111,3,-3,94,-93,114,-113,76
Nav,13,257,0,13,5,56,75,-64,-34,-60,-115,-62,21,63,64,73,19,-109,60,-53,-40,-1,-1,-26,-64,-1,78,-2,-56,-24,-78,-128,-34,77,-39,35,21,-8,68,-107,71,60,-25,123,62
Nav,5,257,0,-1,1,1,1,1,1,1,1,1,1,11,0,0,0,31,8,50,-13,7,-114,3,-50,49,21,108,-12,-47,60,120,79,-29,106,-40,121,110,64,19,-44,87,-65,25,-100
Nav,13,257,0,-1,1,26,63,45,41,-57,55,-63,-105,-91,3,72,-5,62,76,71,113,95,-45,82,-93,77,73,103,-21,94,-119,-22,127,-70,111,-81,-78,-24,119,69,-114,-69,27,-125,30
Nav,13,257,0,-1,2,28,-53,-23,-30,54,-107,61,62,-111,7,-66,-67,-128,-116,-82,116,28,-42,3,5,-75,-71,16,2,92,-104,16,96,117,104,16,7,-59,-30,-25,124,-61,-17,-68,96
Nav,5,257,0,-1,3,1,1,1,1,1,1,1,1,1,1,1,1,1,1,1,1,1,1,1,1,1,1,1,1,42,18,37,0,-52,109,-9,-104,61,77,-98,34,-26,18,9,115
Nav,13,257,0,-1,3,-32,116,38,-35,-125,12,35,42,71,97,-15,-3,24,-64,-60,-56,33,-74,-111,5,91,86,-50,109,-126,74,48,-4,-10,-15,105,-90,-71,62,17,-72,-57,23,70,76
Nav,13,257,0,52,4,-25,-78,8,-35,24,-61,64,-28,57,-87,10,29,106,-67,90,85,105,69,85,-107,-107,74,21,85,106,-86,69,81,-107,-86,-86,-86,-124,-86,114,85,-93,85,-86,58
Nav,13,257,0,21,5,23,-121,-1,-47,-80,34,-60,-5,-84,21,85,21,67,-88,-85,42,-78,-88,42,-46,50,-84,-83,-86,-66,84,41,-107,70,43,84,-107,26,-19,-73,-86,-85,-76,-30,-86
Nav,13,257,0,-1,1,28,68,-57,-35,21,111,51,26,102,-48,-67,122,-3,35,-71,-114,-27,-76,-126,78,-111,63,-65,122,-82,21,-115,77,-99,96,109,-75,-113,-45,31,70,51,56,-125,-2
Nav,13,257,0,-1,2,39,-53,0,-35,-70,107,-52,-5,-86,-5,-82,-91,-127,-77,102,-75,-46,-67,-75,100,52,13,-21,-94,-110,59,125,42,-100,87,-4,-128,98,86,100,41,-15,-38,-70,-108
Nav,13,257,0,-1,3,111,100,-64,82,-33,80,116,-21,80,-111,10,-8,-76,-89,-71,22,-112,-83,16,2,-92,-119,-78,2,-20,-54,123,2,34,14,110,25,72,-43,42,-65,51,-44,-50,37
Nav,13,257,0,26,4,4,105,-82,-42,0,95,-29,31,-99,117,-114,38,124,112,52,109,-59,102,109,17,-31,65,-94,99,40,66,32,98,-53,-97,75,53,30,-89,45,-40,104,8,93,-76
Nav,13,257,0,15,5,-88,69,-66,35,123,-107,62,19,-69,-91,-49,-45,5,-128,-9,-34,105,-61,17,75,8,104,-71,119,54,-81,-76,63,-13,7,117,-104,-125,-108,-79,-54,-120,10,99,-35
Nav,13,257,0,-1,1,-104,51,-126,48,84,7,-60,21,-9,15,-44,0,126,-86,32,-30,36,109,-23,-128,-89,-127,19,10,19,-35,28,-63,-37,-127,-46,-26,70,20,-114,-15,11,84,-97,-128
Nav,13,257,0,-1,2,-85,45,46,-45,51,59,56,-4,67,-102,-37,-15,-84,69,111,-60,22,-41,-28,36,42,68,-44,-117,41,-40,-16,-99,-103,-105,21,71,105,105,-28,120,53,-18,44,113
Nav,13,257,0,-1,3,-69,-86,-33,99,42,-65,59,-12,-71,126,-117,-121,-36,60,65,71,-53,88,-10,56,-48,-8,-1,-47,-122,-54,49,28,-72,-48,114,-78,85,63,-11,61,-65,-8,-71,122
Nav,13,257,0,6,4,43,115,67,-45,98,67,70,-21,-80,-94,-97,-111,-43,-69,-12,37,31,-10,22,84,98,-47,50,-7,77,98,34,-113,57,103,-46,86,22,78,81,96,-109,21,61,-110
Nav,13,257,0,46,5,59,-81,36,-6,122,13,-39,-15,-43,22,-84,-85,-31,-17,89,89,-44,12,103,76,-94,-41,-96,54,56,23,39,-70,121,5,-103,7,-47,127,11,127,-113,7,-72,69
Nav,13,257,0,-1,1,6,-53,63,-35,-73,-82,-60,-106,-26,-57,49,-1,-61,-25,-63,-92,-121,-117,81,-33,-101,-81,-52,-5,-46,-123,-126,-37,58,13,80,-118,68,24,-9,-125,-99,-126,79,29
Nav,13,257,0,-1,2,22,-117,-15,92,56,52,90,-112,13,-24,63,37,-126,-124,86,115,-47,41,-102,-122,4,31,-59,99,-48,-25,16,18,66,72,108,7,80,-58,91,-125,-36,-98,-92,47
Nav,13,257,0,-1,3,-25,12,-60,34,49,11,-5,-3,120,34,-30,127,-72,-41,0,55,24,-73,-17,51,-29,73,78,29,-125,54,106,-4,25,14,110,-39,-55,-59,22,64,63,104,-58,117
Nav,13,257,0,8,4,102,-73,63,-43,-109,-13,-38,-107,-91,45,54,-30,-91,111,-85,101,96,15,-110,97,118,-18,-119,11,-99,16,-120,-114,92,77,-46,73,97,43,-30,12,11,127,43,115
Nav,13,257,0,16,5,24,43,-64,-34,-32,45,-59,21,67,-90,36,52,-56,65,57,-25,6,0,-85,32,39,113,67,-105,-34,-83,76,-1,93,-79,107,-81,48,67,-61,66,-5,23,-128,10
Nav,13,257,0,-1,1,24,75,-64,-34,27,70,-59,21,-28,-1,-53,-5,10,36,-57,50,-7,11,-90,-82,-106,-48,-76,122,45,-70,-126,-77,-6,76,-81,117,-49,-9,127,-128,67,96,-127,-2
Nav,13,257,0,-1,2,-8,-76,-57,-46,116,101,-75,21,-115,7,64,10,124,-120,-87,116,-112,-87,5,24,107,0,23,0,40,38,19,-20,-126,107,-22,6,-110,41,102,-125,-53,31,75,-97
Nav,13,257,0,-1,3,5,75,0,-35,79,107,-60,85,70,97,-11,-1,88,-63,0,-73,39,118,111,0,-92,73,78,-27,-125,53,50,60,25,14,-18,-39,-55,-67,26,66,-64,23,121,118
Nav,13,257,0,7,4,-28,-80,-57,28,11,83,-75,26,36,-1,-3,-31,27,118,-2,63,69,64,-128,-1,32,-65,-1,127,-1,-5,1,0,-63,-46,-40,-2,25,-66,93,123,-48,-1,127,123
Nav,13,257,0,45,5,24,-76,-1,34,123,50,-58,21,99,-28,125,-21,97,87,60,-25,46,0,-79,64,1,81,67,-88,-116,-90,-13,116,-16,-77,3,28,-120,66,118,44,-105,18,-128,9
Nav,17,257,0,-1,1,1,1,1,1,1,1,1,1,1,1,1,1,-116,24,0,0,10,5,-62,18,-9,-96,-70,-66,-49,11,33,-1,102,7,3,-40,-19,-16,-81,-84,85,-122,-84,121
Nav,13,257,0,-1,1,-25,-60,63,-35,120,21,58,-22,26,0,-76,4,-3,-37,56,-116,6,-12,33,81,106,47,-117,-123,-46,5,125,-66,-6,-116,80,-118,48,8,0,-128,68,100,127,1
Nav,13,257,0,-1,2,-25,74,-72,62,11,-11,57,-22,82,24,-128,-11,3,-116,-87,-76,-47,-106,5,-28,107,-1,-17,127,-41,39,47,-20,-126,-105,-21,-8,-110,-47,-101,-116,-62,31,-77,-112
Nav,13,257,0,-1,3,24,-75,-33,-94,-125,-44,57,42,-72,-98,-14,-2,-89,63,7,55,-40,73,17,-2,92,-87,113,29,-100,-26,-51,3,-26,-15,-111,38,-87,-62,-22,-65,63,-24,-71,117
Nav,13,257,0,58,4,27,75,48,-35,-64,-20,57,-22,119,-48,-75,30,72,23,-125,-40,-14,-118,76,13,84,-11,40,-118,2,92,59,24,46,65,60,-126,75,115,68,-103,96,67,-79,-52
Nav,13,257,0,44,5,103,-117,-33,33,73,-17,57,-22,109,-23,45,107,62,-119,57,103,-6,-61,91,-65,116,84,67,-88,124,-53,51,1,74,-35,122,16,-105,-33,109,-104,-25,-10,127,-61
Nav,13,257,0,-1,1,24,75,-64,-34,0,-103,-58,21,26,0,-76,4,-3,-37,56,-115,-122,-117,46,81,-107,-48,116,-123,44,14,124,78,5,115,-81,11,-49,-9,-1,95,-67,100,-125,-2
Nav,13,257,0,-1,2,22,-53,63,93,87,-86,-58,-107,74,-25,-65,-11,-125,115,-88,-116,-86,-87,-7,-37,-108,0,21,-128,-41,39,113,17,98,-104,-21,-1,109,-39,103,-125,51,-24,-76,110
Nav,13,257,0,-1,3,-25,-76,63,-35,-25,-52,126,-22,-8,-98,-14,-1,87,-49,0,55,4,-98,16,-16,-91,-71,-67,30,-125,74,50,124,24,14,110,-39,73,-35,-22,3,-64,-23,-71,117
Nav,13,257,0,59,4,-39,-116,63,61,92,-20,-58,119,-15,-43,-13,30,118,61,-45,94,91,-92,34,-66,32,74,26,-10,53,127,-7,36,48,65,7,126,-96,18,50,36,-101,60,17,25
Nav,13,257,0,42,5,-25,-76,63,-35,87,-14,48,-22,16,126,-117,-22,121,57,1,25,-42,63,-67,64,-25,50,83,-90,69,-85,18,-39,-108,61,107,100,117,-82,-1,34,-40,-1,-65,110
Nav,13,257,0,-1,1,-25,90,-64,34,84,42,-58,-21,27,0,-76,4,-5,-37,56,-19,-10,75,-34,-18,-107,-48,116,-123,34,-6,2,94,-6,76,-82,-118,-49,-9,63,-128,68,100,-65,-2
Nav,13,257,0,-1,2,103,-85,-64,34,36,51,-5,-43,-116,127,-57,5,-99,-116,-23,52,17,-90,-91,99,91,3,14,102,47,-90,-21,-29,-94,23,20,-9,122,-42,-101,-124,-52,-31,108,-105
Nav,13,257,0,-1,3,-25,52,63,13,-116,-108,120,-22,-72,33,13,0,-95,-1,0,55,100,118,51,72,91,88,-80,2,4,53,50,-4,25,22,110,26,73,61,21,66,-64,23,-70,117
Nav,13,257,0,6,4,-25,-76,57,61,67,115,56,-22,72,-81,-70,-31,37,-113,-45,37,-42,41,20,100,-85,-118,-63,-72,-120,1,19,-15,-64,64,83,21,55,-34,-84,1,79,76,87,-7
Nav,13,257,0,38,5,25,43,-64,-46,-70,108,-66,105,-49,-32,-74,-103,-7,-22,-50,-26,46,112,49,127,18,-9,-70,-81,-126,-10,-28,-124,83,71,27,-115,-1,54,-32,-8,-124,55,-128,-7
Nav,13,257,0,-1,1,-25,-76,47,36,15,-55,-121,-22,-27,-2,-49,-5,124,-53,120,117,-122,4,-34,19,-107,-16,75,-123,-51,-7,66,70,-90,-49,-48,125,79,8,0,-96,64,-116,96,-7
Nav,13,257,0,-1,2,-25,52,-48,50,71,42,40,-22,-115,-65,-72,-11,115,-118,70,105,-48,81,-122,-37,-117,-39,-21,3,-41,-33,62,-46,-126,41,4,-8,18,-114,-89,-126,51,-32,-68,-99
Nav,13,257,0,-1,3,96,11,-49,-35,-89,-11,-40,21,71,-100,82,-1,-89,15,15,-55,-39,105,-24,-1,-92,-57,-79,98,-104,-54,14,12,25,-114,17,41,-76,66,29,64,63,-24,-71,13
Nav,13,257,0,3,4,-103,76,-1,-38,-84,84,-56,106,63,63,-22,0,66,-45,127,-39,53,-64,15,-119,76,-55,-45,74,-52,-75,-93,33,-58,-2,-50,47,-43,-69,1,-88,36,64,-109,82
Nav,13,257,0,22,5,-72,-76,61,61,76,50,-41,11,86,44,-114,21,34,-62,1,-121,56,-124,66,-65,-85,-117,-68,44,24,-47,-81,-44,-125,-73,-29,52,68,-36,63,-12,-65,-75,55,39
Nav,13,257,0,-1,1,-25,-76,-65,-35,46,87,53,-22,-27,7,48,-125,61,-38,-8,114,-89,-119,111,107,-107,-44,116,-3,-46,5,125,78,42,-73,47,-102,50,8,0,-125,-94,107,127,-103
Nav,13,257,0,-1,2,-21,72,-33,-66,12,109,-57,-15,-115,-9,67,10,-125,-117,-87,116,-47,87,125,-6,-21,0,-41,71,-41,-40,16,-20,-126,-87,-21,-4,108,-58,-101,-116,50,28,-77,16
Nav,13,257,0,-1,3,24,-76,-1,-94,4,-85,-56,21,-72,-32,9,16,-89,39,127,48,70,-74,-22,-1,91,-68,65,-94,-125,-54,-55,-29,25,14,-98,-39,54,61,21,64,15,-114,73,-118
Nav,13,257,0,61,4,-104,40,-98,-36,-72,-52,-24,26,107,34,111,31,-102,-35,54,-31,-87,36,119,-83,87,121,86,68,4,-108,23,-33,-62,62,-81,53,67,-41,-100,-98,100,89,-113,-35
Nav,13,257,0,23,5,-104,-72,-61,34,-16,-2,-56,21,41,-22,-61,21,39,23,67,115,-8,127,-79,-64,-95,97,-65,39,-103,-32,-51,106,100,121,-54,98,-44,-104,-5,41,22,-16,-77,1
Nav,13,257,0,-1,1,-25,-108,61,-126,64,8,-55,-23,-91,0,-77,4,-3,59,67,116,-118,53,-58,78,-54,-107,-116,-70,72,1,-127,-71,5,-109,82,10,-96,10,-127,120,-92,101,-113,0
Nav,13,257,0,-1,2,35,-87,-4,32,116,-39,-50,-27,12,54,-37,62,127,-113,-105,4,57,-70,-123,-21,-108,-48,8,100,40,-40,-20,15,-1,-1,-24,56,81,-42,99,-53,107,0,79,79
Nav,13,257,0,-1,3,-40,-12,98,-35,104,36,13,28,-89,-125,-127,35,72,39,-125,-60,20,-10,-24,63,-85,-119,-51,18,124,-43,50,-14,-39,14,-82,54,74,-65,20,96,56,-4,85,-118
Nav,13,257,0,30,4,24,19,62,5,-29,-112,54,42,22,-11,-81,-41,-82,123,62,-75,-57,68,-115,-113,109,60,-44,-34,98,-28,43,121,-118,-50,-62,-84,-45,-43,-4,-105,124,-43,118,-22
Nav,13,257,0,36,5,-25,-117,-63,34,-48,114,-54,-41,55,-85,20,25,-105,16,7,-17,-18,-1,-75,-64,-88,-127,-14,-95,-93,-98,-44,37,102,-67,-29,-10,20,-123,117,-85,-43,-60,-79,63
Nav,13,257,0,-1,1,25,53,-65,98,3,95,54,74,57,64,-80,-28,5,101,120,89,54,-12,33,81,-111,80,9,-123,-59,107,-78,82,126,77,-81,117,63,54,-18,-128,-35,75,97,-4
Nav,13,257,0,-1,2,-96,-77,35,89,82,58,-18,47,-78,23,-36,-105,-117,124,-96,-85,30,-97,-11,-12,26,124,47,-68,4,60,113,-112,78,85,10,26,27,-49,-59,-102,-20,97,108,-17
Nav,13,257,0,-1,3,103,79,-122,34,93,-27,86,-42,-64,-58,28,111,-59,120,-81,24,41,113,-113,93,-29,69,45,100,3,55,-62,-17,123,-42,46,-39,-119,-70,29,-4,49,20,-76,90
Nav,13,257,0,20,4,27,-74,-33,109,77,-29,125,-30,61,-120,21,69,-22,109,-37,76,-59,-10,123,-66,-69,35,0,115,-99,79,-116,-4,107,-26,40,78,-70,-58,-78,-48,31,75,94,-96
Nav,12,257,0,4,5,1,1,1,1,1,1,1,1,1,1,1,1,1,1,1,1,10,0,0,0,-10,-28,-73,-111,125,44,-23,-125,91,60,-112,74,-7,-17,-59,-42,-115,-95,-10,83
Nav,13,257,0,7,5,-71,71,-34,-63,-25,46,-118,86,55,-82,-23,-63,-123,-59,113,-31,-77,1,49,126,-91,67,-1,-16,71,0,-36,115,-28,73,-40,-57,-128,-48,79,28,-76,77,45,34
Nav,13,257,0,-1,1,24,69,120,25,49,-42,107,21,80,0,-68,68,-90,101,-25,2,-25,-17,29,-87,-107,-16,106,-5,-46,-37,-67,68,-6,92,81,-119,-57,-9,-1,-128,68,100,-127,-2
Nav,13,257,0,-1,2,-24,66,-64,33,120,74,15,40,-52,7,-24,13,1,-127,-90,8,-66,38,-14,101,-105,56,-33,-111,104,36,-73,-20,-126,-57,-17,22,82,23,96,-89,10,-31,-68,-112
Nav,13,257,0,-1,3,-57,-36,-121,-92,-68,-112,123,-12,-69,114,13,0,-96,63,3,-37,-103,9,-18,21,-92,-80,121,93,-68,-65,83,56,22,113,21,17,43,125,104,-113,49,-40,39,-24
Nav,13,257,0,18,4,81,67,56,89,-8,-17,-86,121,72,-83,-73,36,-37,29,-96,37,37,-89,-28,-27,49,-53,57,113,-50,19,-99,126,-62,64,43,-87,55,32,81,-126,3,-53,106,-24
Nav,13,257,0,1,5,8,75,48,-44,-24,-51,-50,21,-119,-94,84,48,67,-118,-121,115,50,5,-103,-2,-125,-119,112,-128,3,85,96,-18,-45,126,-123,-28,92,-24,-44,-21,-93,-7,-3,30
Nav,13,257,0,-1,1,-103,-95,-42,-8,120,22,52,67,101,-65,11,10,-3,43,-40,111,-26,117,-107,82,-125,17,-10,-97,44,-57,2,-49,13,51,106,15,72,-88,63,125,-61,39,15,0
Nav,13,257,0,-1,2,88,-55,35,-35,103,-115,-56,19,-114,-64,9,-61,-72,-65,-97,-78,34,0,-60,61,3,-40,-113,-100,-31,-74,-54,-9,115,7,11,105,115,37,-93,-8,75,124,-20,-45
Nav,13,257,0,-1,3,56,-3,-63,-29,-36,-75,-51,7,-72,37,-45,18,72,48,15,40,24,102,-97,1,-83,-74,75,29,-107,-5,63,99,-5,-51,86,79,-64,-36,35,-26,-38,-34,-94,57
Nav,13,257,0,5,4,-107,-110,92,-70,8,-99,-47,114,57,60,85,1,-52,-105,76,106,-98,7,-60,62,-53,22,-29,-94,-84,108,82,-59,0,99,-104,42,-121,35,107,42,-12,38,23,-52
Nav,13,257,0,63,5,71,-53,-57,18,-45,82,75,-22,122,-103,-44,-17,80,56,77,-97,-36,17,-113,32,123,119,3,61,-75,6,-90,-3,-24,120,-36,65,21,109,1,42,-33,21,4,83
Nav,13,257,0,-1,1,3,-61,68,-58,123,-119,11,-54,-26,127,75,-5,-3,-69,56,-99,7,-28,-48,106,-123,33,-109,-6,21,58,-1,78,106,-81,-48,97,-49,78,14,-127,-76,-97,-61,-1
Nav,13,257,0,-1,2,60,-111,-57,34,115,-82,-56,19,115,-32,-65,-12,67,96,-90,-53,-95,86,-54,-9,118,7,-105,126,-24,-53,48,-66,-115,-106,-25,57,83,21,100,102,-13,7,15,-29
Nav,13,257,0,-1,3,3,-76,25,-61,-125,-26,52,-22,71,-90,114,-16,-90,63,47,-21,35,114,46,-72,-12,76,-66,-29,-128,50,-94,16,-50,16,-122,30,41,-123,-11,-69,66,23,-78,125
Nav,13,257,0,42,4,-25,72,32,-87,39,-1,75,-22,-47,-121,-107,-22,36,122,-57,117,65,-5,33,7,-54,-31,84,102,-52,34,-6,-85,-48,19,101,62,-108,100,-113,31,-101,-55,-3,13
Nav,13,257,0,50,5,112,-68,-33,-36,-84,110,-8,17,-84,-83,-119,12,0,20,-115,44,-126,-66,127,57,41,-54,66,-88,125,52,-100,122,-58,-123,23,73,110,-27,51,-79,40,-76,51,-66
Nav,13,257,0,-1,1,-58,-35,-1,23,-13,-90,55,-110,117,-6,-53,-60,-67,-39,-60,126,37,43,32,95,-19,-36,122,69,93,-35,-30,78,-27,68,-80,114,55,-56,7,112,-70,27,71,-1
Nav,13,257,0,-1,2,27,75,-12,-100,64,77,-77,-22,-115,30,76,12,92,-14,89,83,-83,87,4,28,-22,0,-73,96,103,-64,56,-113,95,84,2,-61,-66,81,-104,-4,53,-96,113,-104
Nav,13,257,0,-1,3,31,-121,94,106,-113,-85,14,-22,72,-111,-122,-52,-5,-65,-18,41,42,-10,-24,-5,102,-75,-123,-119,81,-49,-51,-115,29,7,84,73,-119,63,-21,103,108,122,-106,119
Nav,13,257,0,26,4,-84,115,-31,62,-48,9,-13,59,83,-8,-127,6,-90,-26,-63,-16,-114,22,5,-79,-114,-8,-68,-127,69,62,-20,-118,61,98,-100,123,47,6,97,121,-51,-8,-45,-14
Nav,13,257,0,7,5,40,-126,65,97,-110,43,95,47,-90,78,-4,-111,-72,33,61,-119,43,-48,-78,56,-30,82,-66,-46,-117,-83,117,-82,-107,-69,-40,-2,123,-108,-10,72,110,19,118,-60
Nav,15,257,0,4,5,1,1,1,1,1,1,1,1,1,1,1,1,17,0,0,0,3,66,-125,95,118,-105,-68,-41,-6,-27,32,-107,89,40,34,-119,-72,-106,104,122,-20,5,66,63
Nav,15,257,0,-1,1,25,-77,-61,50,95,98,-71,105,-30,-61,11,-21,-3,-38,-58,-82,-53,11,30,81,-94,28,-21,-2,-15,-22,-126,-79,50,-77,96,121,7,4,0,-97,100,-49,-71,-58
Nav,15,257,0,-1,2,-128,72,-128,33,-109,117,50,28,-89,-83,-127,-38,-110,-15,9,-13,122,122,-12,-103,-119,113,27,-115,79,-21,126,86,-118,82,86,-43,-43,30,-69,-126,95,-24,68,96
Nav,15,257,0,-1,3,-122,72,52,-35,-8,116,-52,-107,38,-1,16,6,15,38,-72,-123,105,-23,111,-1,-91,19,-106,73,58,105,-61,125,-108,-124,-70,-106,-28,-6,-22,1,84,25,-68,9
Nav,15,257,0,5,4,-49,-92,-61,46,73,-4,51,-22,84,-105,121,97,101,26,22,29,-106,41,-28,91,-86,24,-100,-72,-82,96,77,-122,34,126,41,-67,-120,33,-16,-125,-92,-55,126,50
Nav,15,257,0,18,5,26,91,-64,34,-64,-51,-115,-123,-70,83,-68,20,-100,-64,57,-101,14,40,82,39,14,-38,60,-84,-98,73,-79,-123,76,-106,118,-76,-86,29,-26,43,28,-6,126,-75
Nav,15,257,0,-1,1,6,-76,-57,34,-92,11,1,-70,-5,-8,77,2,24,20,-121,-14,-7,59,32,45,-86,36,-85,122,-3,-6,-110,-95,21,115,-81,126,-121,-5,4,127,92,-101,-79,-57
Nav,15,257,0,-1,2,-25,6,-108,42,79,85,-55,-20,-92,82,-66,-10,-78,-84,59,13,-123,84,121,-102,-99,1,-85,68,15,25,121,92,-122,-41,23,-7,33,98,-128,-125,96,96,83,111
Nav,15,257,0,-1,3,25,-11,69,37,62,-80,-50,117,-50,-36,-44,-65,119,-38,-70,-118,57,22,-8,-63,-83,63,104,72,-71,118,-32,124,-88,-117,-70,70,-3,2,-106,63,-44,38,78,119
Nav,15,257,0,13,4,-28,51,80,37,84,-109,77,21,32,15,67,19,-27,5,-50,24,-7,-3,84,99,-87,109,-125,87,-88,123,-34,120,-24,23,86,1,100,69,3,55,78,-14,95,6
Nav,15,257,0,8,5,28,-53,62,-83,55,77,-55,21,95,28,18,-14,-33,-93,-100,-28,26,64,-125,-63,-93,43,125,-88,109,-35,-23,-46,-44,-89,38,95,-60,-120,10,61,67,32,64,51
Nav,15,257,0,-1,1,-40,84,48,-36,-92,-106,-49,21,37,2,-76,4,-4,-33,56,108,13,-16,33,35,94,81,48,121,-99,125,65,-69,10,78,31,65,120,21,0,-128,97,31,70,57
Nav,15,257,0,-1,2,-32,84,-64,84,40,13,-51,21,-77,-19,-66,56,98,79,126,-14,-126,-103,122,-102,-126,1,39,-95,114,-22,69,-90,69,-40,23,-72,33,26,-125,115,96,-30,68,77
Nav,15,257,0,-1,3,31,75,0,19,92,21,-50,-22,62,95,11,0,-16,-103,68,-115,-122,-10,-5,1,-92,-56,105,-74,71,-119,31,3,85,122,-123,-26,5,2,8,64,-76,102,-39,121
Nav,15,257,0,30,4,-31,84,8,34,-94,-13,62,106,97,75,-106,-105,103,-60,-28,127,95,127,73,-8,46,-16,51,-48,-104,44,32,-85,-68,-108,108,51,40,-117,112,35,1,-17,80,54
Nav,15,257,0,51,5,23,51,-112,96,-12,-30,-44,-43,-19,78,-53,12,6,125,-60,104,24,64,24,-65,103,93,67,40,120,48,12,-64,55,-84,94,63,35,-9,34,-64,19,1,-68,-64
Nav,15,257,0,-1,1,-25,-76,53,-51,23,73,47,-22,37,12,73,-61,-25,-37,56,77,6,-12,1,-47,105,-45,-108,-123,127,4,125,72,-54,64,111,-7,-7,-5,2,-128,127,-17,-81,70
Nav,15,257,0,-1,2,24,-117,-61,-35,127,-107,48,26,-40,-109,-58,-58,-63,-70,-63,15,29,90,-127,99,66,48,7,95,1,21,99,-95,-127,-41,23,121,51,26,121,121,16,30,-71,-17
Nav,15,257,0,-1,3,24,75,-32,2,67,-54,48,42,59,-17,-21,-21,4,-90,52,-13,122,-12,-29,7,-96,55,118,-78,-92,14,25,60,51,4,62,25,-6,18,-55,-49,-85,30,64,-71
Nav,15,257,0,28,4,-114,-120,51,-35,-120,-36,47,-102,67,44,44,23,29,-53,-62,-25,55,96,-66,67,86,-45,-88,-41,-28,43,46,-69,36,-5,97,6,13,-98,-121,26,87,127,84,64
Nav,15,257,0,6,5,126,127,-73,-28,79,66,15,-111,55,-32,-65,-47,-118,71,-42,-26,60,-65,41,-65,-26,57,-67,39,-37,-74,-28,-128,-93,11,28,-18,-78,58,-100,-14,-101,51,64,-79
Nav,15,257,0,-1,1,-25,-76,63,-35,-75,31,-116,-19,29,0,-76,68,2,-81,48,109,-8,15,-34,-98,106,13,90,23,65,-38,122,-97,61,-45,63,121,16,2,32,122,-100,-123,-87,6
Nav,15,257,0,-1,2,103,79,67,61,36,8,-8,-11,103,82,93,25,-22,112,8,-15,-62,87,38,-90,97,0,35,-122,1,-15,-72,90,126,-72,21,121,-18,101,99,-68,116,32,67,-82
Nav,15,257,0,-1,3,-98,85,-2,46,-118,-25,-61,-106,-27,76,47,-82,112,-102,-68,125,-122,126,-60,27,98,41,-122,-73,-76,11,49,-126,-104,100,-6,25,-3,125,25,32,71,-103,60,67
Nav,15,257,0,24,4,27,-124,35,-33,-9,-75,-105,-27,105,47,20,-26,-109,50,58,103,-60,-113,86,-29,-49,110,-93,47,48,-128,29,-34,70,78,-10,48,-76,57,-54,-107,120,12,-80,20
Nav,13,257,0,4,5,1,1,1,1,1,1,1,1,1,1,1,1,1,1,1,1,1,1,1,1,1,1,1,1,1,1,1,1,1,1,1,1,99,23,0,0,53,22,0,-47
Nav,15,257,0,53,5,27,53,-62,46,-58,109,-34,-19,59,-113,115,-115,103,7,60,-32,-96,60,-18,-64,-51,56,-125,22,115,27,85,74,-4,-108,-25,-28,-36,72,-71,19,43,22,-62,56
Nav,13,257,0,-1,1,-39,-58,-68,94,-61,-116,-50,104,-99,-101,-73,-8,-14,35,55,74,120,8,-32,-112,-43,-45,86,4,114,2,-126,65,-123,-116,80,-120,48,10,32,80,-68,-126,-112,1
Nav,15,257,0,-1,1,4,-88,61,-30,16,-128,-96,18,-26,23,120,59,-59,60,63,-106,61,59,50,78,-21,70,-84,90,5,-70,101,-46,2,75,-97,114,-71,-37,63,-124,-29,24,-119,70
Nav,13,257,0,-1,2,56,-12,63,37,-68,-46,-16,21,85,6,64,58,-65,127,74,117,-40,-89,69,-33,-106,-32,-98,1,-88,-40,-24,-116,127,104,-23,7,38,-44,-102,-2,11,-32,-77,-112
Nav,15,257,0,-1,2,59,58,50,-30,68,83,15,-21,-123,82,65,38,-10,54,-34,114,121,38,97,-67,-61,-7,110,93,31,-19,122,-34,127,56,12,-7,45,-98,124,-64,30,-16,76,109
Nav,13,257,0,-1,3,112,76,48,-35,-40,-53,-1,53,64,-31,14,0,105,-56,46,8,39,11,-25,119,91,102,-80,-12,118,-25,8,-8,-92,99,52,-71,75,-63,-22,55,119,-112,-79,-41
Nav,15,257,0,-1,3,-70,75,-64,-92,72,-43,-42,-107,33,-33,87,12,15,-26,126,95,-8,-79,67,-4,-107,-72,-73,50,-64,-52,37,67,76,-97,75,29,27,68,-107,49,90,123,59,-47
Nav,13,257,0,6,4,39,-52,-65,-4,-12,-123,73,-43,72,-17,-69,1,-43,116,47,43,-121,-54,18,116,77,-19,-44,-34,9,-19,-29,73,-62,64,45,73,-9,-11,-96,-116,-69,-4,-79,-19
Nav,15,257,0,53,4,24,-69,39,-94,-123,12,-49,43,48,-81,127,125,94,124,-17,61,89,-42,-108,-113,75,8,-70,67,117,-17,-69,-7,17,-108,-17,119,-45,45,-113,122,-26,72,99,-48
Nav,13,257,0,11,5,-91,56,60,-62,-64,13,-47,75,123,-28,-32,18,2,85,59,-25,-67,71,-53,-93,116,-92,-118,97,25,-105,-117,25,37,-18,-81,122,72,-124,76,93,26,-33,7,50
Nav,15,257,0,52,5,-93,76,56,-117,103,10,37,-30,-45,102,27,-19,55,-19,100,-37,48,116,-69,-7,104,46,67,28,1,-87,121,13,34,95,27,121,-11,121,-70,-94,27,-25,-97,94
Nav,13,257,0,-1,1,-25,-73,-57,-72,68,-88,-43,-19,-27,0,108,13,-30,91,-57,66,-104,-12,41,-91,106,-48,-80,4,45,6,-95,-119,5,-17,80,116,49,-120,-4,119,66,24,-126,94
Nav,15,257,0,-1,1,-17,-76,66,-63,112,-52,-22,-31,99,26,-10,20,110,-57,-37,-1,58,115,-114,-78,81,-78,-89,-100,12,31,27,122,-114,108,-117,25,-59,75,-68,-95,91,-27,50,95
Nav,13,257,0,-1,2,89,-52,33,-69,24,-123,-46,77,12,3,31,12,125,-45,-80,11,46,-90,11,100,-73,-31,-25,-128,101,46,-112,-45,120,-55,20,127,45,104,-45,3,63,98,35,95
Nav,15,257,0,-1,2,103,-128,-70,-38,-117,18,-67,-6,-119,71,45,-2,69,68,72,113,-10,45,-7,71,-67,29,57,-65,65,21,69,90,122,116,40,115,42,-99,106,-126,-103,13,70,-88
Nav,13,257,0,-1,3,-24,116,-62,-64,26,119,45,23,-72,110,-35,-93,-90,95,15,8,0,-118,-32,-88,91,72,-56,2,119,-54,-45,-36,20,46,-127,-7,118,-47,118,56,0,8,67,-120
Nav,15,257,0,-1,3,-119,39,-66,108,45,-34,-8,103,70,-115,-76,92,122,-3,30,-78,-42,-73,58,-105,124,3,75,-123,-112,-26,93,59,-55,-124,-66,4,-119,-31,-102,76,-50,-76,-80,95
Nav,13,257,0,14,4,-49,-68,63,13,-69,109,9,-14,23,66,-113,-45,125,-28,31,-41,79,-116,41,112,-98,92,-9,-26,38,-58,-40,-122,8,22,5,-75,103,-69,90,7,-95,-15,-16,-57
Nav,15,257,0,22,4,-91,-27,-29,-81,70,-60,14,115,-107,-48,-80,-75,-82,125,111,65,47,116,51,-123,98,-96,70,-52,-7,20,10,-123,-52,124,63,98,121,13,-63,49,122,52,-122,121
Nav,15,257,0,58,5,52,-53,127,-91,-59,15,-26,49,75,-57,-107,94,-11,83,-74,-2,19,-87,-116,68,68,42,96,-34,-107,-19,122,6,-110,-14,-119,116,-100,118,-78,-76,-114,-22,39,62
Nav,13,257,0,45,5,71,123,68,89,60,73,60,-8,99,61,117,43,-42,126,43,-8,-128,49,64,-89,-104,30,-125,23,11,-57,-81,56,-89,67,-12,-61,25,-120,-4,-63,9,27,52,78
Nav,13,257,0,-1,1,-67,116,48,66,-65,30,61,101,102,-2,-26,-3,25,-27,36,-116,-96,-21,-74,86,-52,39,-123,43,47,-69,-16,53,38,-35,42,-10,48,-24,-56,-80,111,71,-27,61
Nav,15,257,0,-1,1,36,-53,61,-122,7,-30,109,45,10,-2,-45,-48,53,123,56,-65,-17,121,121,103,114,-108,-81,-5,95,-6,-126,-128,-97,76,-89,-14,-5,-6,-32,-33,-30,-11,124,-61
Nav,13,257,0,-1,2,-31,102,-96,-36,15,37,-14,94,121,-8,64,-12,18,18,46,104,-109,93,57,-118,-69,-81,-22,-63,-9,-64,-106,-13,-8,-113,-89,-5,-61,34,51,51,83,80,95,-20
Nav,15,257,0,-1,2,23,-70,46,-128,118,-99,-18,-31,-105,-81,-41,-123,17,60,-8,-30,-86,83,107,85,-98,5,51,-65,72,-18,98,-114,-99,39,8,57,-43,117,107,83,-63,-116,-65,124
Nav,13,257,0,-1,3,-22,-29,35,-31,99,27,99,-106,-90,-88,54,-34,-98,-35,-116,-98,66,81,-13,-80,-91,-97,-48,-93,120,-102,-49,124,-71,-47,110,29,-56,6,16,64,-98,23,-90,5
Nav,15,257,0,-1,3,-7,46,-8,98,-109,11,2,66,-125,112,-37,-9,-109,-89,-68,-12,-103,31,-12,-17,-69,-57,-122,65,123,-128,17,-61,-48,-68,58,-38,0,29,-42,53,92,57,-96,7
Nav,13,257,0,59,4,-29,-75,-57,-114,-39,80,94,-16,-93,-35,-36,126,40,-27,-19,-39,-21,-65,70,54,122,92,76,-8,-119,-112,-101,-126,-23,-84,-17,83,-104,124,-9,83,-65,-118,24,17
Nav,15,257,0,12,4,-28,116,-64,42,62,34,-28,45,-39,-119,21,-93,28,-94,119,64,70,95,-46,2,-12,-9,43,-112,-54,115,29,23,58,-34,77,-90,-92,-25,54,-80,-36,80,-68,39
Nav,13,257,0,61,5,-121,53,63,-30,-88,-83,-23,-19,75,103,73,15,119,-83,-115,-40,63,-32,-96,-15,52,-113,-78,-27,-73,98,-76,33,90,-116,-82,-11,-58,-124,21,-72,-77,120,-63,-79
Nav,15,257,0,15,5,103,-122,-57,4,-116,114,85,-28,0,117,-7,35,-49,36,-64,20,-14,-1,90,-64,-61,50,-96,-105,96,-86,-117,-36,-78,-41,91,9,-125,-60,-21,-73,-87,-11,7,-42
Nav,15,257,0,-1,1,105,75,16,125,79,116,-83,107,27,19,120,-59,73,122,-96,-11,27,48,64,73,-37,-98,-102,-12,-55,-89,19,-6,-67,120,68,105,-99,-107,106,75,85,-78,-52,111
Nav,13,257,0,-1,1,-107,107,-59,-52,84,-121,-53,125,33,81,-105,25,36,83,41,67,-56,-25,-118,55,13,34,-36,18,-45,66,55,116,99,-66,64,-32,41,-6,-70,-43,114,-90,15,104
Nav,15,257,0,-1,2,-120,59,102,91,-10,5,81,13,14,-86,65,-103,-87,50,34,-107,-70,49,94,122,-63,2,-34,-74,2,109,123,95,49,86,-24,-114,60,68,-127,115,-31,-32,-77,12
Nav,13,257,0,-1,2,119,-102,107,-65,-31,103,123,-42,-5,106,29,67,-71,84,-11,-50,122,-106,120,89,-78,100,5,-107,-46,-90,-3,-82,13,0,91,-118,-121,-55,123,121,47,83,115,-23
Nav,15,257,0,-1,3,-121,52,-96,90,-121,-20,53,-38,8,88,27,-2,-1,-95,68,13,70,97,7,-6,5,-76,44,-120,121,-9,-33,124,-81,-108,90,121,5,1,116,-32,-69,32,-112,127
Nav,15,257,0,34,4,26,75,-32,-62,59,-53,-30,-107,78,74,-107,-24,-99,85,82,-101,30,-85,-86,85,-105,-94,-85,-86,5,68,-75,-41,-85,-75,-86,106,-11,82,87,-43,31,82,-96,82
Nav,15,257,0,16,5,-28,-54,52,-23,-81,18,-79,21,109,80,23,-12,-65,-86,-76,90,67,85,-86,-7,67,-86,-22,-41,-68,42,90,-43,67,53,-85,40,-15,107,42,-59,-68,-86,90,87
Nav,15,257,0,-1,1,39,-73,-65,45,60,-14,12,-22,-26,-25,75,11,2,36,-57,-110,-10,11,-34,-86,-110,-4,116,-123,33,-6,124,-114,74,68,110,121,-8,5,112,-121,-100,0,86,57
Nav,15,257,0,-1,2,-52,-53,63,35,27,-43,-45,21,-28,85,49,-7,114,-51,93,13,-34,-87,-90,-102,99,-2,28,-127,-117,89,-59,-35,94,40,96,-7,46,34,-125,-125,96,30,-77,-108
Nav,15,257,0,-1,3,-25,-68,-64,34,43,-76,44,-22,-39,-96,43,-4,15,-90,-108,122,121,9,4,-2,-90,73,-106,73,-63,-118,39,-124,-75,88,-71,102,-62,-68,-84,83,-81,97,-116,-110
Nav,15,257,0,9,4,24,75,-32,-30,-107,109,-45,21,89,85,85,66,119,-74,-86,106,12,10,-102,-59,44,17,-55,22,91,65,-98,15,-116,38,-81,-6,-66,-5,-79,11,-17,-104,64,-102
Nav,15,257,0,15,5,-17,-76,63,-39,-84,-115,-45,-43,-74,45,-43,19,0,12,-18,-104,-27,63,-80,0,-48,-104,-93,107,-42,106,11,31,-93,5,91,-119,72,53,79,-43,114,11,-68,0
Nav,15,257,0,-1,1,31,67,-64,-96,87,79,-52,-31,-28,-1,-75,-60,2,-37,24,61,70,52,-38,-82,-107,-48,100,-123,127,-6,-54,78,-78,-84,-104,-8,-8,113,36,-128,-100,0,82,57
Nav,13,257,0,-1,1,1,1,1,1,1,1,1,1,1,1,1,1,1,1,1,1,-7,-5,33,29,-107,80,112,126,18,62,14,126,69,-110,94,-108,15,1,-8,110,85,-108,-111,-1
Nav,13,257,0,-1,2,104,52,31,110,-65,-118,-104,21,-6,28,88,-11,57,88,-86,-86,-93,-47,114,102,43,-9,125,-64,94,106,19,-20,-13,-46,-124,-91,-93,104,107,-2,-27,47,12,-48
Nav,15,257,0,-1,2,-104,-76,63,61,-64,-54,-45,21,100,82,65,25,-110,78,48,13,-117,86,121,-118,-126,-2,28,-63,-33,106,-124,-91,-64,-41,23,-7,-82,121,-121,3,-97,-17,-78,-112
Nav,15,257,0,-1,3,-25,-76,-8,-35,54,-21,-45,-23,62,-93,-44,-67,-109,-87,93,-113,-7,-50,-5,-32,-91,-57,105,78,-74,118,-32,116,87,-117,-70,-103,-102,13,22,-64,-88,-27,-125,-122
Nav,15,257,0,7,4,7,55,56,34,-49,-52,42,-22,78,47,-38,-31,26,124,32,-70,38,40,-21,-117,50,107,-58,-72,-114,-17,98,-114,-63,-96,-44,-86,55,32,81,126,-39,91,-46,-42
Nav,15,257,0,16,5,-32,-76,63,93,70,45,42,26,-60,-85,23,-108,88,-104,-59,8,49,-69,-49,63,22,8,-67,87,-59,111,101,-74,69,-107,-100,121,-46,125,-15,120,-72,4,62,-71
Nav,15,257,0,-1,1,24,-85,-63,34,92,-71,43,26,21,-6,-53,4,2,36,-58,112,38,-12,-31,-82,-102,80,-117,-118,-127,5,125,-80,-54,76,111,121,7,5,0,-128,-100,0,86,-7
Nav,15,257,0,-1,2,24,-69,-33,34,43,-18,-21,21,100,-94,-62,-8,-110,-74,-61,10,125,86,73,-102,127,-2,28,65,-4,-18,101,-30,125,40,-24,6,46,26,67,124,-98,31,76,-109
Nav,15,257,0,-1,3,-25,52,32,-93,11,-117,44,-22,-33,-96,42,-2,15,-90,68,-13,-122,-10,-5,-1,101,-56,105,-106,-74,118,28,115,87,91,66,-104,-6,2,22,-64,84,25,124,-127
Nav,15,257,0,8,4,56,75,-64,34,-77,-83,-44,21,-91,45,54,-30,90,-112,84,108,119,51,-106,-111,-127,-18,-15,-53,-101,-32,119,113,79,-75,45,-10,-98,44,-14,-9,-21,-128,-44,-116
Nav,15,257,0,46,5,8,-53,63,-35,-61,14,-41,21,-61,-122,-92,-21,55,64,-57,-25,-26,-1,-93,-64,-40,-114,124,-88,33,-84,-68,0,94,-95,-85,80,-49,-64,28,-67,-5,23,124,-11
Nav,15,257,0,-1,1,-25,-73,64,-35,-57,-23,36,-22,-27,-1,-53,-6,29,30,56,115,-7,11,32,81,-107,-48,116,117,-127,-51,99,80,-75,76,111,121,56,-6,-9,127,-100,-32,-95,62
Nav,15,257,0,-1,2,-25,-76,63,33,43,-11,42,-22,-101,-83,64,-7,-110,-114,63,-19,114,86,121,-102,2,1,-29,-66,0,-19,122,-94,-126,-41,23,25,-47,97,-125,-125,-96,-31,118,111
Nav,15,257,0,-1,3,24,-69,-65,34,92,43,-43,21,33,95,43,0,15,70,-92,114,-122,-10,-5,-1,-91,-56,105,-74,70,73,-32,124,87,123,69,-103,-5,2,22,-64,-107,-26,-125,-58
Nav,15,257,0,56,4,-25,-76,63,97,0,-77,42,-22,-92,0,2,30,19,118,0,0,90,64,-128,-1,28,-1,-1,-65,0,124,-8,1,-36,-46,88,0,48,62,-94,4,-93,0,-65,4
Nav,15,257,0,45,5,-25,-76,63,-35,-112,110,45,-22,-100,27,124,43,97,87,60,25,34,-128,77,127,6,81,67,-88,-13,82,12,-117,0,76,-4,-29,119,65,118,44,-105,-19,127,-10
Nav,15,257,0,-1,1,24,-53,63,-35,32,-119,-43,21,-38,15,-76,4,-3,-37,-56,-116,6,-12,32,81,-107,46,107,-123,-127,5,125,78,-54,76,111,121,7,-6,-1,-65,124,-9,-87,-58
Nav,15,257,0,-1,2,24,75,-64,34,-73,-91,-43,21,100,82,65,-7,-110,-80,63,13,-123,-87,-122,-101,-126,1,-29,70,0,-19,122,-94,97,40,-24,6,46,-102,-124,124,96,-28,-78,-112
Nav,15,257,0,-1,3,-25,-76,-65,34,-57,52,42,-22,-34,-96,-44,-1,-16,-89,68,-115,-122,9,4,0,90,-56,105,-74,-71,-114,24,-125,-88,-124,58,121,-6,2,-23,63,84,-25,-125,-122
Nav,15,257,0,58,4,88,75,-64,34,120,-20,-43,21,123,-48,-75,30,-73,16,124,-33,-14,-118,-80,-14,43,117,-37,-108,2,92,63,-26,-82,66,60,-126,75,-13,59,-103,-97,64,-79,-60
Nav,15,257,0,19,5,-25,-76,63,-35,16,-11,41,-22,109,-17,-46,20,49,-104,57,103,-6,63,-92,92,117,84,67,-88,-128,52,-52,126,-118,34,117,17,104,32,-110,-120,-40,-12,-65,60
Nav,15,257,0,-1,1,24,75,-8,34,-20,41,-42,21,26,0,-76,4,2,-44,56,-115,-7,11,-34,-82,106,47,119,125,126,-11,-126,-79,-54,-84,-112,-122,-8,5,0,-128,-100,0,86,57
Nav,15,257,0,-1,2,24,75,-64,34,124,74,-42,21,101,82,81,6,109,-79,-63,113,-123,-87,-122,101,125,-2,28,65,0,-19,122,90,126,-40,23,5,-47,101,-125,-125,96,-32,76,111
Nav,15,257,0,-1,3,-25,84,-64,34,11,-108,41,-22,-34,-96,-44,-1,-16,-71,68,-115,121,9,4,0,-91,56,-119,73,-71,118,-32,124,-88,-124,-70,102,5,-3,-23,63,84,25,124,121
Nav,15,257,0,52,4,24,75,56,1,4,-116,-44,21,-2,21,12,29,73,-57,44,-95,68,68,93,64,-33,-73,-23,9,-54,-64,5,-37,48,65,-25,-127,-96,82,50,36,100,-37,-18,25
Nav,15,257,0,-1,2,24,75,-64,34,116,82,-87,21,20,126,11,21,-122,-58,6,39,46,-64,66,-65,-121,48,67,-88,-70,-86,-22,-21,-117,61,-109,-101,117,-82,-1,-62,40,-64,-65,110
Nav,15,257,0,-1,1,24,-85,-65,61,-120,9,41,42,-27,-1,75,11,-3,43,-58,114,-58,-9,33,81,-107,-48,116,-123,-122,5,125,78,53,-77,-112,-122,-8,5,0,124,-101,0,86,57
Nav,15,257,0,-1,2,-25,-76,63,-35,-31,-22,-42,-27,100,82,77,101,109,-79,59,13,-123,-87,-90,101,125,-2,28,65,-1,-20,-123,93,126,40,23,-7,-18,98,-125,-125,-97,30,121,-81
Nav,15,257,0,-1,3,24,75,-64,-35,-21,4,-41,21,-34,-96,-21,-1,-16,-90,68,-115,-122,-10,-5,0,90,-56,105,-74,65,-119,31,-125,-88,-124,-70,102,5,-3,-23,63,107,25,-128,121
Nav,15,257,0,57,4,-25,-76,63,-35,80,44,43,-22,-73,80,71,30,-27,-125,32,-38,89,41,19,107,50,107,56,71,113,16,-99,-127,61,-65,-44,86,55,62,81,126,-25,-62,-48,-14
Nav,15,257,0,42,5,-25,-76,63,-35,35,77,47,-22,42,63,-113,-22,6,-19,-63,-104,46,-128,78,-65,-6,-10,69,-88,62,9,27,-118,83,-121,-32,-78,7,-39,28,-8,76,-12,127,-2
Nav,15,257,0,-1,1,-25,-76,-57,34,35,-106,40,-22,-27,-5,75,-5,29,36,-57,114,-7,11,-34,80,-107,-48,116,125,-127,5,125,78,-54,76,111,121,7,4,32,-128,99,47,-106,-58
Nav,15,257,0,-1,2,-25,-76,31,-35,0,-102,-56,-43,-101,-83,-66,6,109,-79,-45,-14,-5,85,-119,101,125,-2,28,-63,0,-19,122,92,-128,47,-24,6,-47,101,-125,3,96,-32,76,111
Nav,15,257,0,-1,3,24,75,-64,34,-101,-85,-43,21,-36,-112,-44,-1,-24,89,-69,2,70,9,4,0,-91,55,-106,-79,62,-119,31,123,87,123,-59,-104,-3,2,-26,-63,-85,-26,-125,70
Nav,15,257,0,3,4,24,75,56,-35,-53,51,-40,21,-64,56,-26,-32,66,-111,-31,46,42,-49,-16,-76,-93,-52,-45,-118,-78,-37,13,-34,59,1,49,-82,58,74,-70,-21,39,120,-107,-78
Nav,15,257,0,22,5,39,-69,63,-35,92,18,40,-22,-87,43,-118,21,2,-54,1,103,39,-128,66,-65,117,84,67,-42,-104,-42,111,107,85,72,-29,52,59,-45,63,76,-111,-9,-65,-40
Nav,15,257,0,-1,1,23,-53,-33,66,8,9,39,-22,-27,-1,-77,4,-3,-37,60,115,-7,11,94,81,106,47,-117,122,-128,5,-123,-79,-62,76,89,57,7,-6,31,-80,99,-1,-87,-58
Nav,15,257,0,-1,2,39,75,-64,-34,-98,-43,39,-22,100,82,-127,-122,109,-79,63,13,122,-82,-122,101,-126,1,-29,-66,127,-19,122,-94,126,-24,23,-7,46,98,3,-125,98,96,-77,-110
Nav,15,257,0,-1,3,24,75,-64,-94,-17,74,-88,21,33,-33,-48,-1,-16,89,-69,114,126,9,4,0,-91,55,-106,-79,-66,118,-32,124,87,123,89,-106,2,-3,105,-64,-85,-26,-125,-122
Nav,15,257,0,3,4,-25,-76,63,-35,-85,-125,39,-22,-108,-43,-18,-32,-102,-52,54,27,86,-37,8,-83,84,-71,-47,-69,4,104,-120,0,57,-63,87,58,-68,40,-93,67,-102,88,-113,49
Nav,15,257,0,23,5,-25,52,-64,-94,104,-115,-40,-22,-42,43,-62,21,-37,22,-64,-104,7,0,-74,-64,26,-30,-68,-41,27,83,53,-107,-100,126,5,-19,36,-56,59,42,16,16,64,2
Nav,15,257,0,-1,1,24,75,-64,35,-117,81,-33,21,-27,-1,75,-5,-3,-37,56,113,6,-12,35,81,-107,-48,116,-123,126,58,125,78,53,75,111,-103,8,-2,-1,123,-100,0,86,57
Nav,15,257,0,-1,2,24,75,-64,34,4,-54,-40,21,100,82,65,5,-110,78,32,13,122,86,121,-102,-126,1,-29,-66,0,-19,122,-94,127,40,-24,6,82,-70,122,-28,-98,31,-77,-112
Nav,15,257,0,-1,3,56,75,-64,-126,-115,-21,-40,21,33,95,43,96,-15,89,-69,114,121,9,4,64,-91,55,-110,73,70,9,-36,124,87,123,69,-103,5,-6,17,-64,-85,-26,119,121
Nav,15,257,0,1,4,24,75,0,-35,69,11,-39,21,-55,80,126,96,-67,-104,125,69,-33,75,5,112,101,-100,41,-34,26,-28,37,121,-14,126,-3,-83,-77,98,-29,-71,67,85,85,-43
Nav,15,257,0,39,5,87,75,-64,-34,51,45,39,-22,-56,86,-21,-23,23,47,-15,24,46,64,106,-48,55,-40,66,-88,-53,30,-41,-43,25,50,25,-7,-44,-125,-76,84,-84,4,78,63
Nav,15,257,0,-1,1,-104,52,-50,34,59,73,89,20,-27,-1,75,-5,-3,38,57,125,-6,-12,-39,78,-101,32,-117,-126,-127,5,125,-50,-123,-76,-112,102,-9,5,8,112,99,-1,-87,-57
Nav,15,257,0,-1,2,8,75,8,-19,80,106,-41,21,100,82,65,6,109,-79,63,13,122,-42,-122,101,-123,1,-28,-98,127,17,123,92,97,40,8,-7,46,-102,124,124,-97,31,-77,-112
Nav,15,257,0,-1,3,-25,-76,63,-35,108,-117,89,-22,-63,-96,42,0,-1,89,11,77,121,-7,-5,-1,90,-56,-119,73,57,-119,31,-126,75,123,-75,102,-6,2,22,-64,116,-33,-1,-122
Nav,15,257,0,15,4,103,75,-64,46,-41,83,38,-21,47,111,-18,-29,60,17,21,-47,-102,-43,-90,38,99,-103,-39,-92,-83,17,17,-51,-7,63,21,85,41,0,-128,127,-116,0,-1,127
Nav,13,257,0,4,5,1,1,1,1,1,1,1,1,1,1,1,1,1,1,1,1,1,1,1,1,1,1,1,1,1,1,1,1,1,1,1,1,1,1,1,1,-38,106,25,0
Nav,15,257,0,12,5,-37,-72,63,37,-72,37,73,-19,-54,82,39,19,46,0,0,-128,41,0,0,-128,-42,-1,-1,127,-37,0,-4,-128,-17,-1,-1,-1,70,48,-4,-1,55,84,85,-123
Nav,13,257,0,-1,1,13,84,-41,-92,-36,-95,-26,125,121,-1,-93,4,4,20,23,87,126,-53,-34,46,104,-81,-88,-126,-29,-84,-102,18,-30,82,-110,-18,-14,64,38,-122,109,-8,-33,-112
Nav,15,257,0,-1,1,24,-75,63,-7,91,-10,-39,21,37,0,74,-5,2,28,25,115,-7,-21,33,-78,109,47,117,123,-127,5,-127,79,-54,76,111,121,-8,5,0,-128,-100,0,86,57
Nav,13,257,0,-1,2,-104,-85,-113,94,-48,10,90,42,86,20,-25,20,32,72,-20,-86,-17,22,-124,45,-49,31,-81,-34,-98,9,-102,-22,89,112,-91,-76,107,-118,123,88,59,-93,94,-28
Nav,15,257,0,-1,2,-23,68,-64,34,-48,-12,37,106,101,82,65,1,111,79,-32,114,122,86,121,-38,125,30,99,-127,31,-19,-122,93,121,-44,40,-7,-35,-91,64,115,-97,15,99,79
Nav,15,257,0,-1,3,-28,-76,32,-38,-96,43,-38,21,-34,-33,43,0,-17,89,71,-115,38,9,-124,-1,-75,-49,105,-74,-92,-119,31,127,-88,-122,58,57,-6,-6,-23,63,91,24,124,-103
Nav,15,257,0,6,4,-25,52,-52,-46,-36,-67,-59,-18,-89,80,-72,1,-27,-125,47,-38,-87,12,-21,111,-51,104,-58,87,113,-24,124,112,61,-65,20,81,55,33,81,97,-36,105,104,-43
Nav,15,257,0,35,5,24,67,-62,42,21,-110,37,5,-14,-94,-44,88,-102,-85,-55,-104,39,64,83,-93,-48,78,67,-40,44,47,-30,10,-53,-59,106,8,41,103,-35,-41,-120,-7,-1,126
Nav,15,257,0,-1,1,-27,-74,63,28,35,73,-63,97,101,-1,75,-5,-126,-37,-64,114,-7,11,-34,-82,106,-17,-76,122,121,58,125,-74,-54,76,111,121,24,26,0,-112,-100,0,86,57
Nav,15,257,0,-1,2,-29,75,-64,34,75,37,37,-20,100,82,65,-7,100,114,62,13,-3,85,121,58,-126,-1,-36,92,95,107,-123,-91,127,-24,23,-7,-31,101,-125,-1,96,28,-125,110
Nav,15,257,0,-1,3,-25,-56,63,29,-68,59,-91,-17,-93,95,-21,63,14,94,68,-19,121,9,-124,-125,85,-50,-103,73,-71,118,-32,100,84,123,-69,102,-30,-14,9,32,-92,-30,-121,-122
Nav,15,257,0,6,4,7,-77,63,33,127,19,33,-21,-55,-80,-96,-47,-21,124,67,103,-18,-1,-76,-64,72,89,67,-88,-66,113,-125,42,119,-95,-126,-119,-2,111,-120,-24,24,-22,126,-68
Nav,15,257,0,61,5,-104,75,-64,34,-117,-14,36,42,22,126,87,-17,82,-25,60,-105,-16,-1,48,-65,-123,-117,64,40,116,-11,22,122,-103,-25,75,22,-43,98,98,90,12,6,-64,80
Nav,15,257,0,-1,1,24,75,-64,34,119,40,-37,21,-22,-1,75,-5,-2,-37,56,-115,-7,11,32,-90,-19,-44,-116,122,-127,-11,-126,79,53,115,-105,110,-8,21,0,64,-65,0,-88,38
Nav,15,257,0,-1,2,-24,68,-57,-30,-25,-75,35,21,-101,-83,67,-7,109,-113,-65,-14,122,-42,-122,101,-123,-5,28,-79,0,-19,-123,93,126,40,-24,6,32,122,-61,-125,99,16,83,23
Nav,15,257,0,-1,3,24,75,56,-35,79,107,-38,53,33,-96,-44,-1,-113,73,-69,66,127,-10,69,-2,92,-56,97,-54,-63,-114,31,3,-17,100,122,101,-69,61,103,-8,-85,-26,123,-40
Nav,15,257,0,21,4,24,-53,-64,-62,110,-116,27,42,46,-40,117,-107,102,100,-60,-103,17,-64,70,-65,57,62,-61,80,-68,3,-30,74,-31,-108,1,2,-86,-29,-41,97,-60,22,0,-119
Nav,15,257,0,35,5,-57,-76,63,29,-41,45,39,-22,-45,-30,-58,-8,-68,-20,35,-27,1,-100,55,63,-18,-98,-68,87,-125,11,124,-107,5,123,42,-9,-114,45,103,99,-5,-17,63,-66
Nav,15,257,0,-1,1,-25,-125,-65,-30,-31,-55,-37,-22,-27,127,72,123,13,36,39,77,-98,4,126,94,-84,82,20,-67,-95,-123,28,17,-54,112,111,121,-8,5,-3,-116,-100,0,86,57
Nav,15,257,0,-1,2,24,76,48,29,4,22,-36,22,100,82,65,25,-110,108,-64,2,122,84,121,-102,-125,1,-101,-65,0,-19,6,-38,-62,-41,23,1,-48,101,-125,-127,18,35,64,16
Nav,15,257,0,-1,3,24,-43,95,-95,23,12,-30,11,33,-97,-41,-1,-16,-103,68,114,121,9,-8,61,-91,-56,-9,73,89,-119,31,99,87,123,61,125,-38,-62,-23,-64,84,-31,-125,-122
Nav,15,257,0,36,4,39,-53,-81,34,-108,44,-40,-11,-42,-1,46,41,111,-63,57,-105,125,78,90,-61,54,-69,76,87,-119,86,35,-128,-46,-51,-10,101,-113,-96,59,-66,-62,0,4,-49
Nav,15,257,0,4,5,24,87,32,-107,27,77,-36,21,-70,86,62,-47,36,10,61,-92,40,-65,-87,56,17,47,67,57,77,-114,-102,95,-86,79,-40,92,67,107,9,-73,124,57,103,-44
Nav,15,257,0,-1,1,-21,112,-64,58,-25,-102,35,-22,26,-128,75,-5,-115,-53,62,-115,33,21,-71,96,-126,54,107,67,127,-118,-126,-79,-54,76,111,-59,-8,-5,63,-128,108,-1,84,41
Nav,15,257,0,-1,2,24,75,64,45,-69,-118,-62,21,36,-82,94,-3,21,-55,48,13,-6,-83,-121,101,125,-2,124,-127,-64,-36,122,82,-125,40,84,61,-47,97,-69,-21,-97,-57,92,111
Nav,15,257,0,-1,3,-25,-76,31,-35,-13,-12,-64,-22,60,64,43,-48,4,106,-80,48,-122,-10,-7,7,100,-56,105,-90,-71,-114,-23,60,86,127,-59,122,-27,50,46,-72,56,-38,-125,118
Nav,15,257,0,-1,3,-26,68,-49,34,81,43,35,-84,22,-69,37,107,-63,-17,58,-105,0,-126,79,65,-127,-57,75,38,49,64,-111,73,-62,62,56,78,-64,-81,-128,-103,-41,0,-64,23
Nav,15,257,0,5,5,-121,-118,67,-29,-72,18,35,-22,-43,-74,76,17,-10,-43,-63,104,121,-128,-55,-80,-74,120,-93,86,-7,123,99,-109,-89,-41,-41,114,-75,126,-81,-11,-85,28,-49,71
Nav,15,257,0,-1,1,6,75,64,-39,39,10,-67,-107,26,16,104,-37,0,36,-57,-78,-7,11,36,15,-42,46,-117,122,-66,62,109,-79,78,-77,-112,-122,-121,-126,8,-128,-29,-1,87,-63
Nav,15,257,0,-1,2,-25,54,-64,-62,-81,-24,32,-22,-28,-82,-122,-50,-110,-128,56,21,-6,105,101,-102,123,32,29,-95,0,18,-123,-36,1,74,-32,14,-47,-33,123,123,-93,31,-77,124
