# 
# Header Description:
# 
# Version: v2.0.0.1 Platform: 9 Manufacturer: samsung Model: SM-A507FN
# 
# Raw,ElapsedRealtimeMillis,TimeNanos,LeapSecond,TimeUncertaintyNanos,FullBiasNanos,BiasNanos,BiasUncertaintyNanos,DriftNanosPerSecond,DriftUncertaintyNanosPerSecond,HardwareClockDiscontinuityCount,Svid,TimeOffsetNanos,State,ReceivedSvTimeNanos,ReceivedSvTimeUncertaintyNanos,Cn0DbHz,PseudorangeRateMetersPerSecond,PseudorangeRateUncertaintyMetersPerSecond,AccumulatedDeltaRangeState,AccumulatedDeltaRangeMeters,AccumulatedDeltaRangeUncertaintyMeters,CarrierFrequencyHz,CarrierCycles,CarrierPhase,CarrierPhaseUncertainty,MultipathIndicator,SnrInDb,ConstellationType,AgcDb,CarrierFrequencyHz
# 
# Fix,Provider,Latitude,Longitude,Altitude,Speed,Accuracy,(UTC)TimeInMs
# 
# Nav,Svid,Type,Status,MessageId,Sub-messageId,Data(Bytes)
# 
Raw,19280613,0,,,-9223372036854775808,,,,,0,24,0.0,35,12818138,29,24.299999237060547,18759.4921875,0.2684636116027832,0,0.0,0.0,1.57542003E9,,,,0,20.299999237060547,1,-1.2999999523162842,1.57542003E9
Raw,19280614,0,,,-9223372036854775808,,,,,0,20,0.0,35,5845115,37,21.5,18051.8515625,0.36730945110321045,0,0.0,0.0,1.57542003E9,,,,0,19.100000381469727,1,-1.2999999523162842,1.57542003E9
Raw,19280614,0,,,-9223372036854775808,,,,,0,4,0.0,3107,16223962,18,30.899999618530273,18649.11328125,0.1490735113620758,0,0.0,0.0,1.57542003E9,,,,0,20.0,6,-1.2999999523162842,1.57542003E9
Raw,19280615,0,,,-9223372036854775808,,,,,0,1,0.0,3107,14193181,19,29.899999618530273,18325.74609375,0.16128772497177124,0,0.0,0.0,1.57542003E9,,,,0,0.0,6,-1.2999999523162842,1.57542003E9
Raw,19280615,0,,,-9223372036854775808,,,,,0,14,0.0,291,658391,20,28.899999618530273,18419.08984375,0.1750669777393341,0,0.0,0.0,1.56109798E9,,,,0,0.0,5,-1.2999999523162842,1.56109798E9
Raw,19280615,0,,,-9223372036854775808,,,,,0,13,0.0,291,3144410,30,23.799999237060547,18233.11328125,0.28293347358703613,0,0.0,0.0,1.56109798E9,,,,0,0.0,5,-1.2999999523162842,1.56109798E9
Raw,19280615,0,,,-9223372036854775808,,,,,0,193,0.0,35,4993449,30,23.799999237060547,18268.248046875,0.28293347358703613,0,0.0,0.0,1.57542003E9,,,,0,20.899999618530273,4,-1.2999999523162842,1.57542003E9
Raw,19280646,0,,,-9223372036854775808,,,,,0,24,0.0,35,12818138,29,24.299999237060547,18759.4921875,0.2684636116027832,0,0.0,0.0,1.57542003E9,,,,0,20.299999237060547,1,-1.2999999523162842,1.57542003E9
Raw,19280646,0,,,-9223372036854775808,,,,,0,20,0.0,35,5845115,37,21.5,18051.8515625,0.36730945110321045,0,0.0,0.0,1.57542003E9,,,,0,19.100000381469727,1,-1.2999999523162842,1.57542003E9
Raw,19280646,0,,,-9223372036854775808,,,,,0,4,0.0,3107,16223962,18,30.600000381469727,18649.11328125,0.1525878757238388,0,0.0,0.0,1.57542003E9,,,,0,20.0,6,-1.2999999523162842,1.57542003E9
Raw,19280647,0,,,-9223372036854775808,,,,,0,1,0.0,3107,14193181,19,29.700000762939453,18325.74609375,0.16391023993492126,0,0.0,0.0,1.57542003E9,,,,0,0.0,6,-1.2999999523162842,1.57542003E9
Raw,19280647,0,,,-9223372036854775808,,,,,0,14,0.0,291,658391,20,28.899999618530273,18419.08984375,0.1750669777393341,0,0.0,0.0,1.56109798E9,,,,0,0.0,5,-1.2999999523162842,1.56109798E9
Raw,19280647,0,,,-9223372036854775808,,,,,0,13,0.0,291,3144410,30,23.799999237060547,18233.11328125,0.28293347358703613,0,0.0,0.0,1.56109798E9,,,,0,0.0,5,-1.2999999523162842,1.56109798E9
Raw,19280647,0,,,-9223372036854775808,,,,,0,193,0.0,35,4993449,30,23.799999237060547,18268.248046875,0.28293347358703613,0,0.0,0.0,1.57542003E9,,,,0,20.899999618530273,4,-1.2999999523162842,1.57542003E9
NMEA,$GPGGA,082058.003,,,,,0,,,,,,,,*7C
,1600071656000
NMEA,$GPGLL,0120.7096,N,10340.9915,E,082058.003,V,N*4C
,1600071656000
NMEA,$GPVTG,0.0,T,,M,0.0,N,0.0,K,N*02
,1600071656000
NMEA,$GPGSV,1,1,02,20,23,347,22,24,51,047,24*7F
,1600071656000
NMEA,$QZGSV,1,1,01,193,32,038,24*63
,1600071656000
NMEA,$GAGSV,1,1,02,101,24,097,30,104,30,353,31*60
,1600071656000
NMEA,$BDGSV,1,1,02,213,66,006,24,214,23,011,29*67
,1600071656000
NMEA,$GPRMC,082058.003,V,,,,,,,140920,,,N*47
,1600071656000
NMEA,$PSAMCLK,2123,11647600,0,9669883,5600384,116476009*4F
,1600071656000
NMEA,$GPGGA,082058.003,,,,,0,,,,,,,,*7C
,1600071656000
NMEA,$GPGLL,0120.7096,N,10340.9915,E,082058.003,V,N*4C
,1600071656000
NMEA,$GPVTG,0.0,T,,M,0.0,N,0.0,K,N*02
,1600071656000
NMEA,$GPGSV,1,1,02,20,23,347,22,24,51,047,24*7F
,1600071656000
NMEA,$QZGSV,1,1,01,193,32,038,24*63
,1600071656000
NMEA,$GAGSV,1,1,02,101,24,097,30,104,30,353,31*60
,1600071656000
NMEA,$BDGSV,1,1,02,213,66,006,24,214,23,011,29*67
,1600071656000
NMEA,$GPRMC,082058.003,V,,,,,,,140920,,,N*47
,1600071656000
NMEA,$PSAMCLK,2123,11647600,0,9669883,5600384,116476009*4F
,1600071656000
Raw,19281611,0,,,-9223372036854775808,,,,,0,24,0.0,35,13816534,29,24.299999237060547,18759.166015625,0.2684636116027832,0,0.0,0.0,1.57542003E9,,,,0,20.200000762939453,1,-1.2999999523162842,1.57542003E9
Raw,19281611,0,,,-9223372036854775808,,,,,0,20,0.0,35,6845868,36,21.700000762939453,18051.84375,0.3585642874240875,0,0.0,0.0,1.57542003E9,,,,0,18.100000381469727,1,-1.2999999523162842,1.57542003E9
Raw,19281611,0,,,-9223372036854775808,,,,,0,14,0.0,291,1657910,19,30.100000381469727,18418.6796875,0.15872763097286224,0,0.0,0.0,1.56109798E9,,,,0,26.100000381469727,5,-1.2999999523162842,1.56109798E9
Raw,19281611,0,,,-9223372036854775808,,,,,0,4,0.0,3107,17222716,18,30.399999618530273,18650.08984375,0.15500031411647797,0,0.0,0.0,1.57542003E9,,,,0,20.700000762939453,6,-1.2999999523162842,1.57542003E9
Raw,19281612,0,,,-9223372036854775808,,,,,0,1,0.0,3107,15193008,19,29.5,18328.515625,0.16659724712371826,0,0.0,0.0,1.57542003E9,,,,0,19.299999237060547,6,-1.2999999523162842,1.57542003E9
Raw,19281612,0,,,-9223372036854775808,,,,,0,193,0.0,35,5993428,27,25.0,18267.11328125,0.25,0,0.0,0.0,1.57542003E9,,,,0,22.0,4,-1.2999999523162842,1.57542003E9
Raw,19281612,0,,,-9223372036854775808,,,,,0,13,0.0,291,4144557,29,24.200000762939453,18232.8203125,0.2712673544883728,0,0.0,0.0,1.56109798E9,,,,0,19.399999618530273,5,-1.2999999523162842,1.56109798E9
Raw,19281661,0,,,-9223372036854775808,,,,,0,24,0.0,35,13816534,29,24.299999237060547,18759.166015625,0.2684636116027832,0,0.0,0.0,1.57542003E9,,,,0,20.200000762939453,1,-1.2999999523162842,1.57542003E9
Raw,19281661,0,,,-9223372036854775808,,,,,0,20,0.0,35,6845868,36,21.700000762939453,18051.84375,0.3585642874240875,0,0.0,0.0,1.57542003E9,,,,0,18.100000381469727,1,-1.2999999523162842,1.57542003E9
Raw,19281661,0,,,-9223372036854775808,,,,,0,14,0.0,291,1657910,19,30.100000381469727,18418.6796875,0.15872763097286224,0,0.0,0.0,1.56109798E9,,,,0,26.100000381469727,5,-1.2999999523162842,1.56109798E9
Raw,19281662,0,,,-9223372036854775808,,,,,0,4,0.0,3107,17222716,19,30.100000381469727,18650.08984375,0.15872763097286224,0,0.0,0.0,1.57542003E9,,,,0,20.700000762939453,6,-1.2999999523162842,1.57542003E9
Raw,19281662,0,,,-9223372036854775808,,,,,0,1,0.0,3107,15193008,20,29.299999237060547,18328.515625,0.16935087740421295,0,0.0,0.0,1.57542003E9,,,,0,19.299999237060547,6,-1.2999999523162842,1.57542003E9
Raw,19281662,0,,,-9223372036854775808,,,,,0,193,0.0,35,5993428,27,25.0,18267.11328125,0.25,0,0.0,0.0,1.57542003E9,,,,0,22.0,4,-1.2999999523162842,1.57542003E9
Raw,19281662,0,,,-9223372036854775808,,,,,0,13,0.0,291,4144557,29,24.200000762939453,18232.8203125,0.2712673544883728,0,0.0,0.0,1.56109798E9,,,,0,19.399999618530273,5,-1.2999999523162842,1.56109798E9
NMEA,$GPGGA,082059.004,,,,,0,,,,,,,,*7A
,1600071657000
NMEA,$GPGLL,0120.7096,N,10340.9915,E,082059.004,V,N*4A
,1600071657000
NMEA,$GPVTG,0.0,T,,M,0.0,N,0.0,K,N*02
,1600071657000
NMEA,$GPGSV,1,1,02,20,23,347,22,24,51,047,24*7F
,1600071657000
NMEA,$QZGSV,1,1,01,193,32,038,25*62
,1600071657000
NMEA,$GAGSV,1,1,02,101,24,097,30,104,30,353,30*61
,1600071657000
NMEA,$BDGSV,1,1,02,213,66,006,24,214,23,011,30*6F
,1600071657000
NMEA,$GPRMC,082059.004,V,,,,,,,140920,,,N*41
,1600071657000
NMEA,$PSAMCLK,2123,11647700,0,9669883,5661825,116477010*40
,1600071657000
NMEA,$GPGGA,082059.004,,,,,0,,,,,,,,*7A
,1600071657000
NMEA,$GPGLL,0120.7096,N,10340.9915,E,082059.004,V,N*4A
,1600071657000
NMEA,$GPVTG,0.0,T,,M,0.0,N,0.0,K,N*02
,1600071657000
NMEA,$GPGSV,1,1,02,20,23,347,22,24,51,047,24*7F
,1600071657000
NMEA,$QZGSV,1,1,01,193,32,038,25*62
,1600071657000
NMEA,$GAGSV,1,1,02,101,24,097,29,104,30,353,30*69
,1600071657000
NMEA,$BDGSV,1,1,02,213,66,006,24,214,23,011,30*6F
,1600071657000
NMEA,$GPRMC,082059.004,V,,,,,,,140920,,,N*41
,1600071657000
NMEA,$PSAMCLK,2123,11647700,0,9669883,5661825,116477010*40
,1600071657000
Raw,19282617,13726955278,18,0.0,-1284106864296637696,0.0,2.7754288E7,61394.97265625,0.0,0,24,0.0,35,14814812,29,24.299999237060547,18758.560546875,0.2684636116027832,0,0.0,0.0,1.57542003E9,,,,0,20.200000762939453,1,-1.2999999523162842,1.57542003E9
Raw,19282617,13726955278,18,0.0,-1284106864296637696,0.0,2.7754288E7,61394.97265625,0.0,0,20,0.0,35,7846487,36,21.700000762939453,18051.67578125,0.3585642874240875,0,0.0,0.0,1.57542003E9,,,,0,17.700000762939453,1,-1.2999999523162842,1.57542003E9
Raw,19282618,13726955278,18,0.0,-1284106864296637696,0.0,2.7754288E7,61394.97265625,0.0,0,14,0.0,291,2657324,18,30.399999618530273,18419.474609375,0.15500031411647797,0,0.0,0.0,1.56109798E9,,,,0,25.5,5,-1.2999999523162842,1.56109798E9
Raw,19282618,13726955278,18,0.0,-1284106864296637696,0.0,2.7754288E7,61394.97265625,0.0,0,4,0.0,3107,18221360,19,29.899999618530273,18649.021484375,0.16128772497177124,0,0.0,0.0,1.57542003E9,,,,0,20.100000381469727,6,-1.2999999523162842,1.57542003E9
Raw,19282618,13726955278,18,0.0,-1284106864296637696,0.0,2.7754288E7,61394.97265625,0.0,0,193,0.0,35,6993394,25,25.799999237060547,18267.412109375,0.23113907873630524,0,0.0,0.0,1.57542003E9,,,,0,23.600000381469727,4,-1.2999999523162842,1.57542003E9
Raw,19282619,13726955278,18,0.0,-1284106864296637696,0.0,2.7754288E7,61394.97265625,0.0,0,1,0.0,3107,16192784,20,29.0,18330.0234375,0.1736111044883728,0,0.0,0.0,1.57542003E9,,,,0,18.700000762939453,6,-1.2999999523162842,1.57542003E9
Raw,19282619,13726955278,18,0.0,-1284106864296637696,0.0,2.7754288E7,61394.97265625,0.0,0,13,0.0,291,5144584,28,24.5,18232.6171875,0.26298487186431885,0,0.0,0.0,1.56109798E9,,,,0,19.899999618530273,5,-1.2999999523162842,1.56109798E9
NMEA,$GPGGA,082100.024,0120.6031,N,10340.9063,E,1,07,2.6,41.9,M,3.1,M,,*51
,1600071658000
NMEA,$GPGLL,0120.6031,N,10340.9063,E,082100.024,A,A*59
,1600071658000
NMEA,$GPVTG,5.1,T,,M,8.1,N,15.0,K,A*34
,1600071658000
NMEA,$GPGSV,1,1,02,20,23,347,22,24,51,047,24*7F
,1600071658000
NMEA,$QZGSV,1,1,01,193,32,038,26*61
,1600071658000
Raw,19282672,13726955278,18,0.0,-1284106864296637696,0.0,2.7754288E7,61394.97265625,0.0,0,24,0.0,35,14814812,29,24.299999237060547,18758.560546875,0.2684636116027832,0,0.0,0.0,1.57542003E9,,,,0,20.200000762939453,1,-1.2999999523162842,1.57542003E9
Raw,19282673,13726955278,18,0.0,-1284106864296637696,0.0,2.7754288E7,61394.97265625,0.0,0,20,0.0,35,7846487,36,21.700000762939453,18051.67578125,0.3585642874240875,0,0.0,0.0,1.57542003E9,,,,0,17.700000762939453,1,-1.2999999523162842,1.57542003E9
Raw,19282673,13726955278,18,0.0,-1284106864296637696,0.0,2.7754288E7,61394.97265625,0.0,0,14,0.0,291,2657324,18,30.399999618530273,18419.474609375,0.15500031411647797,0,0.0,0.0,1.56109798E9,,,,0,25.5,5,-1.2999999523162842,1.56109798E9
Raw,19282674,13726955278,18,0.0,-1284106864296637696,0.0,2.7754288E7,61394.97265625,0.0,0,4,0.0,3107,18221360,19,29.700000762939453,18649.021484375,0.16391023993492126,0,0.0,0.0,1.57542003E9,,,,0,20.100000381469727,6,-1.2999999523162842,1.57542003E9
Raw,19282675,13726955278,18,0.0,-1284106864296637696,0.0,2.7754288E7,61394.97265625,0.0,0,193,0.0,35,6993394,25,25.799999237060547,18267.412109375,0.23113907873630524,0,0.0,0.0,1.57542003E9,,,,0,23.600000381469727,4,-1.2999999523162842,1.57542003E9
Raw,19282676,13726955278,18,0.0,-1284106864296637696,0.0,2.7754288E7,61394.97265625,0.0,0,1,0.0,3107,16192784,21,28.700000762939453,18330.0234375,0.17803412675857544,0,0.0,0.0,1.57542003E9,,,,0,18.700000762939453,6,-1.2999999523162842,1.57542003E9
Raw,19282676,13726955278,18,0.0,-1284106864296637696,0.0,2.7754288E7,61394.97265625,0.0,0,13,0.0,291,5144584,28,24.5,18232.6171875,0.26298487186431885,0,0.0,0.0,1.56109798E9,,,,0,19.899999618530273,5,-1.2999999523162842,1.56109798E9
NMEA,$GLGSV,1,1,01,78,19,061,22*54
,1600071658000
NMEA,$GAGSV,1,1,02,101,24,097,29,104,30,353,30*69
,1600071658000
NMEA,$BDGSV,1,1,02,213,66,006,25,214,23,011,30*6E
,1600071658000
NMEA,$GPGSA,A,3,24,20,,,,,,,,,,,3.6,2.6,2.2*37
,1600071658000
NMEA,$QZGSA,A,3,193,,,,,,,,,,,,3.6,2.6,2.2*14
,1600071658000
NMEA,$GAGSA,A,3,101,104,,,,,,,,,,,3.6,2.6,2.2*27
,1600071658000
NMEA,$BDGSA,A,3,213,214,,,,,,,,,,,3.6,2.6,2.2*25
,1600071658000
NMEA,$GPRMC,082100.024,A,0120.6031,N,10340.9063,E,8.1,5.1,140920,,,A*6D
,1600071658000
NMEA,$PSAMCLK,2123,11647802,7,9672287,-12874860,116478024*56
,1600071658000
Fix,gps,1.343385,103.681772,45.000000,4.170000,24.500000,1600071660024
NMEA,$GPGGA,082100.024,0120.6031,N,10340.9063,E,1,07,2.6,41.9,M,3.1,M,,*51
,1600071658000
NMEA,$GPGLL,0120.6031,N,10340.9063,E,082100.024,A,A*59
,1600071658000
NMEA,$GPVTG,5.1,T,,M,8.1,N,15.0,K,A*34
,1600071658000
NMEA,$GPGSV,1,1,02,20,23,347,22,24,51,047,24*7F
,1600071658000
NMEA,$QZGSV,1,1,01,193,32,038,26*61
,1600071658000
NMEA,$GLGSV,1,1,01,78,19,061,22*54
,1600071658000
NMEA,$GAGSV,1,1,02,101,24,097,29,104,30,353,30*69
,1600071658000
NMEA,$BDGSV,1,1,03,213,66,006,25,214,23,011,30,224,48,089,19*6E
,1600071658000
NMEA,$GPGSA,A,3,24,20,,,,,,,,,,,3.6,2.6,2.2*37
,1600071658000
NMEA,$QZGSA,A,3,193,,,,,,,,,,,,3.6,2.6,2.2*14
,1600071658000
NMEA,$GAGSA,A,3,101,104,,,,,,,,,,,3.6,2.6,2.2*27
,1600071658000
NMEA,$BDGSA,A,3,213,214,,,,,,,,,,,3.6,2.6,2.2*25
,1600071658000
NMEA,$GPRMC,082100.024,A,0120.6031,N,10340.9063,E,8.1,5.1,140920,,,A*6D
,1600071658000
NMEA,$PSAMCLK,2123,11647802,7,9672287,-12874860,116478024*56
,1600071658000
Raw,19283622,14727816776,18,0.0,-1284106864298859264,0.0,2.7754288E7,61397.890625,0.0,0,24,0.0,35,15613657,29,24.299999237060547,18758.7109375,0.2684636116027832,0,0.0,0.0,1.57542003E9,,,,0,19.899999618530273,1,-1.2999999523162842,1.57542003E9
Raw,19283623,14727816776,18,0.0,-1284106864298859264,0.0,2.7754288E7,61397.890625,0.0,0,20,0.0,35,8647710,37,21.600000381469727,18051.74609375,0.3628973662853241,0,0.0,0.0,1.57542003E9,,,,0,17.700000762939453,1,-1.2999999523162842,1.57542003E9
Raw,19283623,14727816776,18,0.0,-1284106864298859264,0.0,2.7754288E7,61397.890625,0.0,0,14,0.0,291,3457369,18,30.399999618530273,18419.228515625,0.15500031411647797,0,0.0,0.0,1.56109798E9,,,,0,25.100000381469727,5,-1.2999999523162842,1.56109798E9
Raw,19283623,14727816776,18,0.0,-1284106864298859264,0.0,2.7754288E7,61397.890625,0.0,0,4,0.0,3107,19020590,19,29.5,18648.158203125,0.16659724712371826,0,0.0,0.0,1.57542003E9,,,,0,19.600000381469727,6,-1.2999999523162842,1.57542003E9
Raw,19283623,14727816776,18,0.0,-1284106864298859264,0.0,2.7754288E7,61397.890625,0.0,0,193,0.0,35,7793892,25,25.899999618530273,18267.83984375,0.2289324849843979,0,0.0,0.0,1.57542003E9,,,,0,21.5,4,-1.2999999523162842,1.57542003E9
Raw,19283623,14727816776,18,0.0,-1284106864298859264,0.0,2.7754288E7,61397.890625,0.0,0,1,0.0,3107,16993078,21,28.5,18331.169921875,0.18107740581035614,0,0.0,0.0,1.57542003E9,,,,0,18.399999618530273,6,-1.2999999523162842,1.57542003E9
Raw,19283624,14727816776,18,0.0,-1284106864298859264,0.0,2.7754288E7,61397.890625,0.0,0,13,0.0,291,5945243,28,24.5,18232.716796875,0.26298487186431885,0,0.0,0.0,1.56109798E9,,,,0,19.0,5,-1.2999999523162842,1.56109798E9
Raw,19283624,14727816776,18,0.0,-1284106864298859264,0.0,2.7754288E7,61397.890625,0.0,0,14,0.0,35,10164397,30,23.899999618530273,18664.28125,0.2799473702907562,0,0.0,0.0,1.59806246E9,,,,0,18.399999618530273,3,-1.2999999523162842,1.59806246E9
Raw,19283624,14727816776,18,0.0,-1284106864298859264,0.0,2.7754288E7,61397.890625,0.0,0,24,0.0,291,9071863,45,19.700000762939453,18428.267578125,0.46277016401290894,0,0.0,0.0,1.56109798E9,,,,0,15.699999809265137,5,-1.2999999523162842,1.56109798E9
NMEA,$GPGGA,082101.027,0120.6112,N,10340.9120,E,1,09,2.4,39.7,M,3.1,M,,*58
,1600071659000
NMEA,$GPGLL,0120.6112,N,10340.9120,E,082101.027,A,A*5D
,1600071659000
NMEA,$GPVTG,5.2,T,,M,9.3,N,17.1,K,A*37
,1600071659000
NMEA,$GPGSV,1,1,03,18,61,348,19,20,23,347,22,24,51,047,24*47
,1600071659000
NMEA,$QZGSV,1,1,01,193,32,038,26*61
,1600071659000
NMEA,$GLGSV,1,1,01,78,19,061,24*52
,1600071659000
NMEA,$GAGSV,1,1,02,101,24,097,29,104,30,353,30*69
,1600071659000
NMEA,$BDGSV,1,1,03,213,66,006,25,214,23,011,30,224,48,089,20*64
,1600071659000
NMEA,$GPGSA,A,3,24,20,,,,,,,,,,,3.2,2.4,2.2*31
,1600071659000
NMEA,$GNGSA,A,3,78,,,,,,,,,,,,3.2,2.4,2.2*24
,1600071659000
NMEA,$QZGSA,A,3,193,,,,,,,,,,,,3.2,2.4,2.2*12
,1600071659000
NMEA,$GAGSA,A,3,101,104,,,,,,,,,,,3.2,2.4,2.2*21
,1600071659000
Raw,19283687,14727816776,18,0.0,-1284106864298859264,0.0,2.7754288E7,61397.890625,0.0,0,24,0.0,35,15613657,29,24.299999237060547,18758.7109375,0.2684636116027832,0,0.0,0.0,1.57542003E9,,,,0,19.899999618530273,1,-1.2999999523162842,1.57542003E9
Raw,19283687,14727816776,18,0.0,-1284106864298859264,0.0,2.7754288E7,61397.890625,0.0,0,20,0.0,35,8647710,37,21.600000381469727,18051.74609375,0.3628973662853241,0,0.0,0.0,1.57542003E9,,,,0,17.700000762939453,1,-1.2999999523162842,1.57542003E9
Raw,19283687,14727816776,18,0.0,-1284106864298859264,0.0,2.7754288E7,61397.890625,0.0,0,14,0.0,291,3457369,18,30.399999618530273,18419.228515625,0.15500031411647797,0,0.0,0.0,1.56109798E9,,,,0,25.100000381469727,5,-1.2999999523162842,1.56109798E9
Raw,19283688,14727816776,18,0.0,-1284106864298859264,0.0,2.7754288E7,61397.890625,0.0,0,4,0.0,3107,19020590,20,29.299999237060547,18648.158203125,0.16935087740421295,0,0.0,0.0,1.57542003E9,,,,0,19.600000381469727,6,-1.2999999523162842,1.57542003E9
Raw,19283688,14727816776,18,0.0,-1284106864298859264,0.0,2.7754288E7,61397.890625,0.0,0,193,0.0,35,7793892,25,25.899999618530273,18267.83984375,0.2289324849843979,0,0.0,0.0,1.57542003E9,,,,0,21.5,4,-1.2999999523162842,1.57542003E9
Raw,19283688,14727816776,18,0.0,-1284106864298859264,0.0,2.7754288E7,61397.890625,0.0,0,1,0.0,3107,16993078,21,28.200000762939453,18331.169921875,0.18579070270061493,0,0.0,0.0,1.57542003E9,,,,0,18.399999618530273,6,-1.2999999523162842,1.57542003E9
Raw,19283688,14727816776,18,0.0,-1284106864298859264,0.0,2.7754288E7,61397.890625,0.0,0,13,0.0,291,5945243,28,24.5,18232.716796875,0.26298487186431885,0,0.0,0.0,1.56109798E9,,,,0,19.0,5,-1.2999999523162842,1.56109798E9
Raw,19283689,14727816776,18,0.0,-1284106864298859264,0.0,2.7754288E7,61397.890625,0.0,0,14,0.0,35,10164397,30,23.899999618530273,18664.28125,0.2799473702907562,0,0.0,0.0,1.59806246E9,,,,0,18.399999618530273,3,-1.2999999523162842,1.59806246E9
Raw,19283689,14727816776,18,0.0,-1284106864298859264,0.0,2.7754288E7,61397.890625,0.0,0,24,0.0,291,9071863,45,19.700000762939453,18428.267578125,0.46277016401290894,0,0.0,0.0,1.56109798E9,,,,0,15.699999809265137,5,-1.2999999523162842,1.56109798E9
NMEA,$BDGSA,A,3,213,214,224,,,,,,,,,,3.2,2.4,2.2*17
,1600071659000
NMEA,$GPRMC,082101.027,A,0120.6112,N,10340.9120,E,9.3,5.2,140920,,,A*69
,1600071659000
NMEA,$PSAMCLK,2123,11647903,9,9672747,-15096332,116479027*5C
,1600071659000
Fix,gps,1.343520,103.681867,43.000000,4.760000,24.000000,1600071661027
NMEA,$GPGGA,082101.027,0120.6112,N,10340.9120,E,1,09,2.4,39.7,M,3.1,M,,*58
,1600071659000
NMEA,$GPGLL,0120.6112,N,10340.9120,E,082101.027,A,A*5D
,1600071659000
NMEA,$GPVTG,5.2,T,,M,9.3,N,17.1,K,A*37
,1600071659000
NMEA,$GPGSV,1,1,03,18,61,348,19,20,23,347,22,24,51,047,24*47
,1600071659000
NMEA,$QZGSV,1,1,01,193,32,038,26*61
,1600071659000
NMEA,$GLGSV,1,1,01,78,19,061,24*52
,1600071659000
NMEA,$GAGSV,1,1,02,101,24,097,28,104,30,353,29*60
,1600071659000
NMEA,$BDGSV,1,1,03,213,66,006,25,214,23,011,30,224,48,089,20*64
,1600071659000
NMEA,$GPGSA,A,3,24,20,,,,,,,,,,,3.2,2.4,2.2*31
,1600071659000
NMEA,$GNGSA,A,3,78,,,,,,,,,,,,3.2,2.4,2.2*24
,1600071659000
NMEA,$QZGSA,A,3,193,,,,,,,,,,,,3.2,2.4,2.2*12
,1600071659000
NMEA,$GAGSA,A,3,101,104,,,,,,,,,,,3.2,2.4,2.2*21
,1600071659000
NMEA,$BDGSA,A,3,213,214,224,,,,,,,,,,3.2,2.4,2.2*17
,1600071659000
NMEA,$GPRMC,082101.027,A,0120.6112,N,10340.9120,E,9.3,5.2,140920,,,A*69
,1600071659000
NMEA,$PSAMCLK,2123,11647903,9,9672747,-15096332,116479027*5C
,1600071659000
NMEA,$GPGGA,082102.025,,,,,0,,,,,,,,*76
,1600071660000
NMEA,$GPGLL,0120.6112,N,10340.9120,E,082102.025,V,N*44
,1600071660000
Raw,19284725,0,,,-9223372036854775808,,,,,0,24,0.0,35,16148175,29,24.200000762939453,18759.31640625,0.2712673544883728,0,0.0,0.0,1.57542003E9,,,,0,19.100000381469727,1,-1.2999999523162842,1.57542003E9
Raw,19284726,0,,,-9223372036854775808,,,,,0,20,0.0,35,9184614,36,21.700000762939453,18052.951171875,0.3585642874240875,0,0.0,0.0,1.57542003E9,,,,0,19.299999237060547,1,-1.2999999523162842,1.57542003E9
Raw,19284726,0,,,-9223372036854775808,,,,,0,14,0.0,291,3993016,18,30.399999618530273,18418.408203125,0.15500031411647797,0,0.0,0.0,1.56109798E9,,,,0,25.600000381469727,5,-1.2999999523162842,1.56109798E9
Raw,19284727,0,,,-9223372036854775808,,,,,0,4,0.0,3107,39555543,20,29.100000381469727,18647.33984375,0.17217335104942322,0,0.0,0.0,1.57542003E9,,,,0,20.700000762939453,6,-1.2999999523162842,1.57542003E9
Raw,19284728,0,,,-9223372036854775808,,,,,0,193,0.0,35,8330111,25,25.899999618530273,18268.2109375,0.2289324849843979,0,0.0,0.0,1.57542003E9,,,,0,20.899999618530273,4,-1.2999999523162842,1.57542003E9
Raw,19284728,0,,,-9223372036854775808,,,,,0,1,0.0,3107,37529078,22,28.0,18331.419921875,0.18903592228889465,0,0.0,0.0,1.57542003E9,,,,0,18.700000762939453,6,-1.2999999523162842,1.57542003E9
Raw,19284728,0,,,-9223372036854775808,,,,,0,13,0.0,291,6481497,28,24.600000381469727,18233.2734375,0.2603082060813904,0,0.0,0.0,1.56109798E9,,,,0,19.600000381469727,5,-1.2999999523162842,1.56109798E9
Raw,19284729,0,,,-9223372036854775808,,,,,0,14,0.0,35,10699154,29,24.399999618530273,18665.3046875,0.2657030522823334,0,0.0,0.0,1.59806246E9,,,,0,15.5,3,-1.2999999523162842,1.59806246E9
Raw,19284729,0,,,-9223372036854775808,,,,,0,24,0.0,291,9607462,41,20.600000381469727,18427.21484375,0.4109138548374176,0,0.0,0.0,1.56109798E9,,,,0,16.799999237060547,5,-1.2999999523162842,1.56109798E9
NMEA,$GPVTG,0.0,T,,M,0.0,N,0.0,K,N*02
,1600071660000
NMEA,$GPGSV,1,1,03,18,61,348,19,20,23,347,22,24,51,047,24*47
,1600071660000
NMEA,$QZGSV,1,1,01,193,32,038,26*61
,1600071660000
Raw,19284757,0,,,-9223372036854775808,,,,,0,24,0.0,35,16148175,29,24.200000762939453,18759.31640625,0.2712673544883728,0,0.0,0.0,1.57542003E9,,,,0,19.100000381469727,1,-1.2999999523162842,1.57542003E9
Raw,19284757,0,,,-9223372036854775808,,,,,0,20,0.0,35,9184614,36,21.700000762939453,18052.951171875,0.3585642874240875,0,0.0,0.0,1.57542003E9,,,,0,19.299999237060547,1,-1.2999999523162842,1.57542003E9
Raw,19284757,0,,,-9223372036854775808,,,,,0,14,0.0,291,3993016,18,30.399999618530273,18418.408203125,0.15500031411647797,0,0.0,0.0,1.56109798E9,,,,0,25.600000381469727,5,-1.2999999523162842,1.56109798E9
Raw,19284758,0,,,-9223372036854775808,,,,,0,4,0.0,3107,39555543,20,29.0,18647.33984375,0.1736111044883728,0,0.0,0.0,1.57542003E9,,,,0,20.700000762939453,6,-1.2999999523162842,1.57542003E9
Raw,19284758,0,,,-9223372036854775808,,,,,0,193,0.0,35,8330111,25,25.899999618530273,18268.2109375,0.2289324849843979,0,0.0,0.0,1.57542003E9,,,,0,20.899999618530273,4,-1.2999999523162842,1.57542003E9
Raw,19284758,0,,,-9223372036854775808,,,,,0,1,0.0,3107,37529078,22,27.799999237060547,18331.419921875,0.19236689805984497,0,0.0,0.0,1.57542003E9,,,,0,18.700000762939453,6,-1.2999999523162842,1.57542003E9
Raw,19284758,0,,,-9223372036854775808,,,,,0,13,0.0,291,6481497,28,24.600000381469727,18233.2734375,0.2603082060813904,0,0.0,0.0,1.56109798E9,,,,0,19.600000381469727,5,-1.2999999523162842,1.56109798E9
Raw,19284759,0,,,-9223372036854775808,,,,,0,14,0.0,35,10699154,29,24.399999618530273,18665.3046875,0.2657030522823334,0,0.0,0.0,1.59806246E9,,,,0,15.5,3,-1.2999999523162842,1.59806246E9
Raw,19284759,0,,,-9223372036854775808,,,,,0,24,0.0,291,9607462,41,20.600000381469727,18427.21484375,0.4109138548374176,0,0.0,0.0,1.56109798E9,,,,0,16.799999237060547,5,-1.2999999523162842,1.56109798E9
NMEA,$GLGSV,1,1,01,78,19,061,24*52
,1600071660000
NMEA,$GAGSV,1,1,02,101,24,097,28,104,30,353,29*60
,1600071660000
NMEA,$BDGSV,1,1,03,213,66,006,25,214,23,011,30,224,48,089,21*65
,1600071660000
NMEA,$GPRMC,082102.025,V,,,,,,,140920,,,N*4D
,1600071660000
NMEA,$PSAMCLK,2123,11648003,0,9625028,-14154302,116480011*51
,1600071660000
NMEA,$GPGGA,082102.025,,,,,0,,,,,,,,*76
,1600071660000
NMEA,$GPGLL,0120.6112,N,10340.9120,E,082102.025,V,N*44
,1600071660000
NMEA,$GPVTG,0.0,T,,M,0.0,N,0.0,K,N*02
,1600071660000
NMEA,$GPGSV,1,1,03,18,61,348,19,20,23,347,22,24,51,047,24*47
,1600071660000
NMEA,$QZGSV,1,1,01,193,32,038,26*61
,1600071660000
NMEA,$GLGSV,1,1,01,78,19,061,24*52
,1600071660000
NMEA,$GAGSV,1,1,02,101,24,097,28,104,30,353,29*60
,1600071660000
NMEA,$BDGSV,1,1,03,213,66,006,25,214,23,011,30,224,48,089,21*65
,1600071660000
NMEA,$GPRMC,082102.025,V,,,,,,,140920,,,N*4D
,1600071660000
NMEA,$PSAMCLK,2123,11648003,0,9625028,-14154302,116480011*51
,1600071660000
Raw,19285680,0,,,-9223372036854775808,,,,,0,24,0.0,35,17147013,29,24.200000762939453,18760.455078125,0.2712673544883728,0,0.0,0.0,1.57542003E9,,,,0,18.100000381469727,1,-1.2999999523162842,1.57542003E9
Raw,19285681,0,,,-9223372036854775808,,,,,0,20,0.0,35,10185777,36,21.700000762939453,18052.81640625,0.3585642874240875,0,0.0,0.0,1.57542003E9,,,,0,17.0,1,-1.2999999523162842,1.57542003E9
Raw,19285681,0,,,-9223372036854775808,,,,,0,14,0.0,291,4992964,18,30.5,18419.8046875,0.15378700196743011,0,0.0,0.0,1.56109798E9,,,,0,25.600000381469727,5,-1.2999999523162842,1.56109798E9
Raw,19285681,0,,,-9223372036854775808,,,,,0,4,0.0,3107,40554726,20,28.799999237060547,18645.83203125,0.17654122412204742,0,0.0,0.0,1.57542003E9,,,,0,21.200000762939453,6,-1.2999999523162842,1.57542003E9
Raw,19285682,0,,,-9223372036854775808,,,,,0,193,0.0,35,9330573,25,25.899999618530273,18267.6796875,0.2289324849843979,0,0.0,0.0,1.57542003E9,,,,0,20.100000381469727,4,-1.2999999523162842,1.57542003E9
Raw,19285682,0,,,-9223372036854775808,,,,,0,1,0.0,3107,38529356,22,27.600000381469727,18331.126953125,0.19578666985034943,0,0.0,0.0,1.57542003E9,,,,0,19.399999618530273,6,-1.2999999523162842,1.57542003E9
Raw,19285682,0,,,-9223372036854775808,,,,,0,14,0.0,35,11698293,27,24.899999618530273,18665.734375,0.252518892288208,0,0.0,0.0,1.59806246E9,,,,0,17.799999237060547,3,-1.2999999523162842,1.59806246E9
Raw,19285683,0,,,-9223372036854775808,,,,,0,13,0.0,291,7482054,28,24.600000381469727,18233.765625,0.2603082060813904,0,0.0,0.0,1.56109798E9,,,,0,19.399999618530273,5,-1.2999999523162842,1.56109798E9
Raw,19285683,0,,,-9223372036854775808,,,,,0,24,0.0,291,10607408,37,21.399999618530273,18426.171875,0.37180250883102417,0,0.0,0.0,1.56109798E9,,,,0,19.399999618530273,5,-1.2999999523162842,1.56109798E9
Raw,19285759,0,,,-9223372036854775808,,,,,0,24,0.0,35,17147013,29,24.200000762939453,18760.455078125,0.2712673544883728,0,0.0,0.0,1.57542003E9,,,,0,18.100000381469727,1,-1.2999999523162842,1.57542003E9
Raw,19285759,0,,,-9223372036854775808,,,,,0,20,0.0,35,10185777,36,21.700000762939453,18052.81640625,0.3585642874240875,0,0.0,0.0,1.57542003E9,,,,0,17.0,1,-1.2999999523162842,1.57542003E9
Raw,19285760,0,,,-9223372036854775808,,,,,0,14,0.0,291,4992964,18,30.5,18419.8046875,0.15378700196743011,0,0.0,0.0,1.56109798E9,,,,0,25.600000381469727,5,-1.2999999523162842,1.56109798E9
Raw,19285760,0,,,-9223372036854775808,,,,,0,4,0.0,3107,40554726,21,28.700000762939453,18645.83203125,0.17803412675857544,0,0.0,0.0,1.57542003E9,,,,0,21.200000762939453,6,-1.2999999523162842,1.57542003E9
Raw,19285761,0,,,-9223372036854775808,,,,,0,193,0.0,35,9330573,25,25.899999618530273,18267.6796875,0.2289324849843979,0,0.0,0.0,1.57542003E9,,,,0,20.100000381469727,4,-1.2999999523162842,1.57542003E9
Raw,19285761,0,,,-9223372036854775808,,,,,0,1,0.0,3107,38529356,23,27.399999618530273,18331.126953125,0.19929847121238708,0,0.0,0.0,1.57542003E9,,,,0,19.399999618530273,6,-1.2999999523162842,1.57542003E9
Raw,19285762,0,,,-9223372036854775808,,,,,0,14,0.0,35,11698293,27,24.899999618530273,18665.734375,0.252518892288208,0,0.0,0.0,1.59806246E9,,,,0,17.799999237060547,3,-1.2999999523162842,1.59806246E9
Raw,19285762,0,,,-9223372036854775808,,,,,0,13,0.0,291,7482054,28,24.600000381469727,18233.765625,0.2603082060813904,0,0.0,0.0,1.56109798E9,,,,0,19.399999618530273,5,-1.2999999523162842,1.56109798E9
Raw,19285763,0,,,-9223372036854775808,,,,,0,24,0.0,291,10607408,37,21.399999618530273,18426.171875,0.37180250883102417,0,0.0,0.0,1.56109798E9,,,,0,19.399999618530273,5,-1.2999999523162842,1.56109798E9
NMEA,$GPGGA,082103.026,,,,,0,,,,,,,,*74
,1600071661000
NMEA,$GPGLL,0120.6112,N,10340.9120,E,082103.026,V,N*46
,1600071661000
NMEA,$GPVTG,0.0,T,,M,0.0,N,0.0,K,N*02
,1600071661000
NMEA,$GPGSV,1,1,03,18,61,348,20,20,23,347,22,24,51,047,24*4D
,1600071661000
NMEA,$QZGSV,1,1,01,193,32,038,26*61
,1600071661000
NMEA,$GLGSV,1,1,01,78,19,061,25*53
,1600071661000
NMEA,$GAGSV,1,1,02,101,24,097,28,104,30,353,29*60
,1600071661000
NMEA,$BDGSV,1,1,03,213,66,006,25,214,23,011,31,224,48,089,21*64
,1600071661000
NMEA,$GPRMC,082103.026,V,,,,,,,140920,,,N*4F
,1600071661000
NMEA,$PSAMCLK,2123,11648103,0,9669762,-14092862,116481012*55
,1600071661000
NMEA,$GPGGA,082103.026,,,,,0,,,,,,,,*74
,1600071661000
NMEA,$GPGLL,0120.6112,N,10340.9120,E,082103.026,V,N*46
,1600071661000
NMEA,$GPVTG,0.0,T,,M,0.0,N,0.0,K,N*02
,1600071661000
NMEA,$GPGSV,1,1,03,18,61,348,20,20,23,347,22,24,51,047,24*4D
,1600071661000
NMEA,$QZGSV,1,1,01,193,32,038,26*61
,1600071661000
NMEA,$GLGSV,1,1,01,78,19,061,25*53
,1600071661000
NMEA,$GAGSV,1,1,02,101,24,097,27,104,30,353,29*6F
,1600071661000
NMEA,$BDGSV,1,1,03,213,66,006,25,214,23,011,31,224,48,089,21*64
,1600071661000
NMEA,$GPRMC,082103.026,V,,,,,,,140920,,,N*4F
,1600071661000
NMEA,$PSAMCLK,2123,11648103,0,9669762,-14092862,116481012*55
,1600071661000
NMEA,$GPGGA,082103.226,0120.6053,N,10340.9135,E,1,09,2.4,22.0,M,3.1,M,,*54
,1600071661000
NMEA,$GPGLL,0120.6053,N,10340.9135,E,082103.226,A,A*5C
,1600071661000
NMEA,$GPVTG,343.6,T,,M,5.1,N,9.4,K,A*06
,1600071661000
NMEA,$GPGSV,1,1,03,18,61,348,20,20,23,347,22,24,50,047,24*4C
,1600071661000
NMEA,$QZGSV,1,1,01,193,32,038,26*61
,1600071661000
Raw,19285859,16927873167,18,0.0,-1284106864297843456,0.0,50.034610748291016,61389.96875,0.0,0,24,0.0,47,116481155532398,29,24.200000762939453,18760.498046875,0.2712673544883728,0,0.0,0.0,1.57542003E9,,,,0,18.100000381469727,1,-1.2999999523162842,1.57542003E9
Raw,19285859,16927873167,18,0.0,-1284106864297843456,0.0,50.034610748291016,61389.96875,0.0,0,20,0.0,47,116481148571621,36,21.700000762939453,18052.822265625,0.3585642874240875,0,0.0,0.0,1.57542003E9,,,,0,17.0,1,-1.2999999523162842,1.57542003E9
Raw,19285859,16927873167,18,0.0,-1284106864297843456,0.0,50.034610748291016,61389.96875,0.0,0,14,0.0,815,116467143378557,18,30.5,18419.76171875,0.15378700196743011,0,0.0,0.0,1.56109798E9,,,,0,25.600000381469727,5,-1.2999999523162842,1.56109798E9
Raw,19285859,16927873167,18,0.0,-1284106864297843456,0.0,50.034610748291016,61389.96875,0.0,0,4,0.0,7215,116481138940158,21,28.5,18645.796875,0.18107740581035614,0,0.0,0.0,1.57542003E9,,,,0,21.200000762939453,6,-1.2999999523162842,1.57542003E9
Raw,19285860,16927873167,18,0.0,-1284106864297843456,0.0,50.034610748291016,61389.96875,0.0,0,193,0.0,47,116481087716263,25,25.899999618530273,18267.57421875,0.2289324849843979,0,0.0,0.0,1.57542003E9,,,,0,20.100000381469727,4,-1.2999999523162842,1.57542003E9
Raw,19285860,16927873167,18,0.0,-1284106864297843456,0.0,50.034610748291016,61389.96875,0.0,0,1,0.0,7215,116481136915034,23,27.200000762939453,18330.91796875,0.2029055953025818,0,0.0,0.0,1.57542003E9,,,,0,19.399999618530273,6,-1.2999999523162842,1.57542003E9
Raw,19285860,16927873167,18,0.0,-1284106864297843456,0.0,50.034610748291016,61389.96875,0.0,0,14,0.0,239,40863150083807,27,25.0,18665.56640625,0.25,0,0.0,0.0,1.59806246E9,,,,0,17.799999237060547,3,-1.2999999523162842,1.59806246E9
Raw,19285861,16927873167,18,0.0,-1284106864297843456,0.0,50.034610748291016,61389.96875,0.0,0,13,0.0,815,116467105867783,28,24.600000381469727,18233.6015625,0.2603082060813904,0,0.0,0.0,1.56109798E9,,,,0,19.399999618530273,5,-1.2999999523162842,1.56109798E9
Raw,19285861,16927873167,18,0.0,-1284106864297843456,0.0,50.034610748291016,61389.96875,0.0,0,24,0.0,815,116467148992996,37,21.399999618530273,18426.06640625,0.37180250883102417,0,0.0,0.0,1.56109798E9,,,,0,19.399999618530273,5,-1.2999999523162842,1.56109798E9
NMEA,$GLGSV,1,1,01,78,19,061,25*53
,1600071661000
NMEA,$GAGSV,1,1,02,101,24,097,27,104,30,353,29*6F
,1600071661000
NMEA,$BDGSV,1,1,03,213,66,005,25,214,23,011,31,224,48,088,21*66
,1600071661000
NMEA,$GPGSA,A,3,24,20,,,,,,,,,,,3.2,2.4,2.2*31
,1600071661000
NMEA,$GNGSA,A,3,78,,,,,,,,,,,,3.2,2.4,2.2*24
,1600071661000
NMEA,$QZGSA,A,3,193,,,,,,,,,,,,3.2,2.4,2.2*12
,1600071661000
Raw,19285898,16927873167,18,0.0,-1284106864297843456,0.0,50.034610748291016,61389.96875,0.0,0,24,0.0,47,116481155532398,29,24.200000762939453,18760.498046875,0.2712673544883728,0,0.0,0.0,1.57542003E9,,,,0,18.100000381469727,1,-1.2999999523162842,1.57542003E9
Raw,19285898,16927873167,18,0.0,-1284106864297843456,0.0,50.034610748291016,61389.96875,0.0,0,20,0.0,47,116481148571621,36,21.700000762939453,18052.822265625,0.3585642874240875,0,0.0,0.0,1.57542003E9,,,,0,17.0,1,-1.2999999523162842,1.57542003E9
Raw,19285899,16927873167,18,0.0,-1284106864297843456,0.0,50.034610748291016,61389.96875,0.0,0,14,0.0,815,116467143378557,18,30.5,18419.76171875,0.15378700196743011,0,0.0,0.0,1.56109798E9,,,,0,25.600000381469727,5,-1.2999999523162842,1.56109798E9
Raw,19285899,16927873167,18,0.0,-1284106864297843456,0.0,50.034610748291016,61389.96875,0.0,0,4,0.0,7215,116481138940158,21,28.399999618530273,18645.796875,0.18262839317321777,0,0.0,0.0,1.57542003E9,,,,0,21.200000762939453,6,-1.2999999523162842,1.57542003E9
Raw,19285899,16927873167,18,0.0,-1284106864297843456,0.0,50.034610748291016,61389.96875,0.0,0,193,0.0,47,116481087716263,25,25.899999618530273,18267.57421875,0.2289324849843979,0,0.0,0.0,1.57542003E9,,,,0,20.100000381469727,4,-1.2999999523162842,1.57542003E9
Raw,19285899,16927873167,18,0.0,-1284106864297843456,0.0,50.034610748291016,61389.96875,0.0,0,1,0.0,7215,116481136915034,23,27.100000381469727,18330.91796875,0.20474600791931152,0,0.0,0.0,1.57542003E9,,,,0,19.399999618530273,6,-1.2999999523162842,1.57542003E9
Raw,19285899,16927873167,18,0.0,-1284106864297843456,0.0,50.034610748291016,61389.96875,0.0,0,14,0.0,239,40863150083807,27,25.0,18665.56640625,0.25,0,0.0,0.0,1.59806246E9,,,,0,17.799999237060547,3,-1.2999999523162842,1.59806246E9
Raw,19285899,16927873167,18,0.0,-1284106864297843456,0.0,50.034610748291016,61389.96875,0.0,0,13,0.0,815,116467105867783,28,24.600000381469727,18233.6015625,0.2603082060813904,0,0.0,0.0,1.56109798E9,,,,0,19.399999618530273,5,-1.2999999523162842,1.56109798E9
Raw,19285900,16927873167,18,0.0,-1284106864297843456,0.0,50.034610748291016,61389.96875,0.0,0,24,0.0,815,116467148992996,37,21.399999618530273,18426.06640625,0.37180250883102417,0,0.0,0.0,1.56109798E9,,,,0,19.399999618530273,5,-1.2999999523162842,1.56109798E9
Fix,gps,1.343422,103.681892,25.000000,2.600000,24.500000,1600071663226
NMEA,$GAGSA,A,3,101,104,,,,,,,,,,,3.2,2.4,2.2*21
,1600071661000
NMEA,$BDGSA,A,3,213,214,224,,,,,,,,,,3.2,2.4,2.2*17
,1600071661000
NMEA,$GPRMC,082103.226,A,0120.6053,N,10340.9135,E,5.1,343.6,140920,,,A*63
,1600071661000
NMEA,$PSAMCLK,2123,11648123,9,9671499,12191,116481226*40
,1600071661000
NMEA,$GPGGA,082103.226,0120.6053,N,10340.9135,E,1,09,2.4,22.0,M,3.1,M,,*54
,1600071661000
NMEA,$GPGLL,0120.6053,N,10340.9135,E,082103.226,A,A*5C
,1600071661000
NMEA,$GPVTG,343.6,T,,M,5.1,N,9.4,K,A*06
,1600071661000
NMEA,$GPGSV,1,1,03,18,61,348,20,20,23,347,22,24,50,047,24*4C
,1600071661000
NMEA,$QZGSV,1,1,01,193,32,038,26*61
,1600071661000
NMEA,$GLGSV,1,1,01,78,19,061,25*53
,1600071661000
NMEA,$GAGSV,1,1,02,101,24,097,27,104,30,353,28*6E
,1600071661000
NMEA,$BDGSV,1,1,03,213,66,005,25,214,23,011,31,224,48,088,21*66
,1600071661000
NMEA,$GPGSA,A,3,24,20,,,,,,,,,,,3.2,2.4,2.2*31
,1600071661000
NMEA,$GNGSA,A,3,78,,,,,,,,,,,,3.2,2.4,2.2*24
,1600071661000
NMEA,$QZGSA,A,3,193,,,,,,,,,,,,3.2,2.4,2.2*12
,1600071661000
NMEA,$GAGSA,A,3,101,104,,,,,,,,,,,3.2,2.4,2.2*21
,1600071661000
NMEA,$BDGSA,A,3,213,214,224,,,,,,,,,,3.2,2.4,2.2*17
,1600071661000
NMEA,$GPRMC,082103.226,A,0120.6053,N,10340.9135,E,5.1,343.6,140920,,,A*63
,1600071661000
NMEA,$PSAMCLK,2123,11648123,9,9671499,12191,116481226*40
,1600071661000
Raw,19286382,17428518389,18,0.0,-1284106864297812736,0.0,50.034610748291016,61388.50390625,0.0,0,24,0.0,47,116481656146289,29,24.200000762939453,18760.681640625,0.2712673544883728,0,0.0,0.0,1.57542003E9,,,,0,18.100000381469727,1,-1.2999999523162842,1.57542003E9
Raw,19286382,17428518389,18,0.0,-1284106864297812736,0.0,50.034610748291016,61388.50390625,0.0,0,20,0.0,47,116481649186670,36,21.799999237060547,18052.703125,0.35430842638015747,0,0.0,0.0,1.57542003E9,,,,0,17.0,1,-1.2999999523162842,1.57542003E9
Raw,19286383,17428518389,18,0.0,-1284106864297812736,0.0,50.034610748291016,61388.50390625,0.0,0,18,0.0,47,116481657451697,41,20.5,18047.853515625,0.416233092546463,0,0.0,0.0,1.57542003E9,,,,0,18.200000762939453,1,-1.2999999523162842,1.57542003E9
Raw,19286383,17428518389,18,0.0,-1284106864297812736,0.0,50.034610748291016,61388.50390625,0.0,0,14,0.0,815,116467643993006,18,30.5,18419.763671875,0.15378700196743011,0,0.0,0.0,1.56109798E9,,,,0,25.600000381469727,5,-1.2999999523162842,1.56109798E9
Raw,19286383,17428518389,18,0.0,-1284106864297812736,0.0,50.034610748291016,61388.50390625,0.0,0,4,0.0,7215,116481639554235,21,28.299999237060547,18646.552734375,0.18419939279556274,0,0.0,0.0,1.57542003E9,,,,0,21.200000762939453,6,-1.2999999523162842,1.57542003E9
Raw,19286384,17428518389,18,0.0,-1284106864297812736,0.0,50.034610748291016,61388.50390625,0.0,0,193,0.0,47,116481588330964,25,25.899999618530273,18267.05078125,0.2289324849843979,0,0.0,0.0,1.57542003E9,,,,0,20.100000381469727,4,-1.2999999523162842,1.57542003E9
Raw,19286384,17428518389,18,0.0,-1284106864297812736,0.0,50.034610748291016,61388.50390625,0.0,0,1,0.0,7215,116481637529619,23,26.899999618530273,18330.431640625,0.20850275456905365,0,0.0,0.0,1.57542003E9,,,,0,19.399999618530273,6,-1.2999999523162842,1.57542003E9
Raw,19286385,17428518389,18,0.0,-1284106864297812736,0.0,50.034610748291016,61388.50390625,0.0,0,14,0.0,239,40863650697732,27,24.899999618530273,18664.384765625,0.252518892288208,0,0.0,0.0,1.59806246E9,,,,0,0.0,3,-1.2999999523162842,1.59806246E9
Raw,19286387,17428518389,18,0.0,-1284106864297812736,0.0,50.034610748291016,61388.50390625,0.0,0,13,0.0,815,116467606482579,28,24.600000381469727,18233.373046875,0.2603082060813904,0,0.0,0.0,1.56109798E9,,,,0,19.399999618530273,5,-1.2999999523162842,1.56109798E9
Raw,19286387,17428518389,18,0.0,-1284106864297812736,0.0,50.034610748291016,61388.50390625,0.0,0,24,0.0,815,116467649607443,37,21.5,18426.0,0.36730945110321045,0,0.0,0.0,1.56109798E9,,,,0,19.399999618530273,5,-1.2999999523162842,1.56109798E9
Raw,19286417,17428518389,18,0.0,-1284106864297812736,0.0,50.034610748291016,61388.50390625,0.0,0,24,0.0,47,116481656146289,29,24.200000762939453,18760.681640625,0.2712673544883728,0,0.0,0.0,1.57542003E9,,,,0,18.100000381469727,1,-1.2999999523162842,1.57542003E9
Raw,19286417,17428518389,18,0.0,-1284106864297812736,0.0,50.034610748291016,61388.50390625,0.0,0,20,0.0,47,116481649186670,36,21.799999237060547,18052.703125,0.35430842638015747,0,0.0,0.0,1.57542003E9,,,,0,17.0,1,-1.2999999523162842,1.57542003E9
Raw,19286417,17428518389,18,0.0,-1284106864297812736,0.0,50.034610748291016,61388.50390625,0.0,0,18,0.0,47,116481657451697,41,20.5,18047.853515625,0.416233092546463,0,0.0,0.0,1.57542003E9,,,,0,18.200000762939453,1,-1.2999999523162842,1.57542003E9
Raw,19286418,17428518389,18,0.0,-1284106864297812736,0.0,50.034610748291016,61388.50390625,0.0,0,14,0.0,815,116467643993006,18,30.5,18419.763671875,0.15378700196743011,0,0.0,0.0,1.56109798E9,,,,0,25.600000381469727,5,-1.2999999523162842,1.56109798E9
Raw,19286418,17428518389,18,0.0,-1284106864297812736,0.0,50.034610748291016,61388.50390625,0.0,0,4,0.0,7215,116481639554235,21,28.200000762939453,18646.552734375,0.18579070270061493,0,0.0,0.0,1.57542003E9,,,,0,21.200000762939453,6,-1.2999999523162842,1.57542003E9
Raw,19286418,17428518389,18,0.0,-1284106864297812736,0.0,50.034610748291016,61388.50390625,0.0,0,193,0.0,47,116481588330964,25,25.899999618530273,18267.05078125,0.2289324849843979,0,0.0,0.0,1.57542003E9,,,,0,20.100000381469727,4,-1.2999999523162842,1.57542003E9
Raw,19286418,17428518389,18,0.0,-1284106864297812736,0.0,50.034610748291016,61388.50390625,0.0,0,1,0.0,7215,116481637529619,24,26.799999237060547,18330.431640625,0.21042001247406006,0,0.0,0.0,1.57542003E9,,,,0,19.399999618530273,6,-1.2999999523162842,1.57542003E9
Raw,19286419,17428518389,18,0.0,-1284106864297812736,0.0,50.034610748291016,61388.50390625,0.0,0,14,0.0,239,40863650697732,28,24.799999237060547,18664.384765625,0.25507602095603943,0,0.0,0.0,1.59806246E9,,,,0,0.0,3,-1.2999999523162842,1.59806246E9
Raw,19286420,17428518389,18,0.0,-1284106864297812736,0.0,50.034610748291016,61388.50390625,0.0,0,13,0.0,815,116467606482579,28,24.600000381469727,18233.373046875,0.2603082060813904,0,0.0,0.0,1.56109798E9,,,,0,19.399999618530273,5,-1.2999999523162842,1.56109798E9
Raw,19286420,17428518389,18,0.0,-1284106864297812736,0.0,50.034610748291016,61388.50390625,0.0,0,24,0.0,815,116467649607443,37,21.5,18426.0,0.36730945110321045,0,0.0,0.0,1.56109798E9,,,,0,19.399999618530273,5,-1.2999999523162842,1.56109798E9
NMEA,$GPGGA,082103.726,0120.6049,N,10340.9112,E,1,10,2.4,27.3,M,3.1,M,,*51
,1600071662000
NMEA,$GPGLL,0120.6049,N,10340.9112,E,082103.726,A,A*57
,1600071662000
NMEA,$GPVTG,330.1,T,,M,5.3,N,9.9,K,A*0A
,1600071662000
NMEA,$GPGSV,1,1,03,18,61,348,21,20,23,347,22,24,50,047,24*4D
,1600071662000
NMEA,$QZGSV,1,1,01,193,32,038,26*61
,1600071662000
NMEA,$GLGSV,1,1,01,78,19,061,25*53
,1600071662000
NMEA,$GAGSV,1,1,02,101,24,097,27,104,30,353,28*6E
,1600071662000
NMEA,$BDGSV,1,1,03,213,66,005,25,214,23,011,31,224,48,088,22*65
,1600071662000
NMEA,$GPGSA,A,3,18,24,20,,,,,,,,,,3.2,2.4,2.2*38
,1600071662000
NMEA,$GNGSA,A,3,78,,,,,,,,,,,,3.2,2.4,2.2*24
,1600071662000
NMEA,$QZGSA,A,3,193,,,,,,,,,,,,3.2,2.4,2.2*12
,1600071662000
NMEA,$GAGSA,A,3,101,104,,,,,,,,,,,3.2,2.4,2.2*21
,1600071662000
NMEA,$BDGSA,A,3,213,214,224,,,,,,,,,,3.2,2.4,2.2*17
,1600071662000
NMEA,$GPRMC,082103.726,A,0120.6049,N,10340.9112,E,5.3,330.1,140920,,,A*69
,1600071662000
NMEA,$PSAMCLK,2123,11648173,10,9671268,42916,116481726*72
,1600071662000
NMEA,$GPGGA,082103.726,0120.6049,N,10340.9112,E,1,10,2.4,27.3,M,3.1,M,,*51
,1600071662000
NMEA,$GPGLL,0120.6049,N,10340.9112,E,082103.726,A,A*57
,1600071662000
NMEA,$GPVTG,330.1,T,,M,5.3,N,9.9,K,A*0A
,1600071662000
NMEA,$GPGSV,1,1,03,18,61,348,21,20,23,347,22,24,50,047,24*4D
,1600071662000
NMEA,$QZGSV,1,1,01,193,32,038,26*61
,1600071662000
NMEA,$GLGSV,1,1,01,78,19,061,25*53
,1600071662000
NMEA,$GAGSV,1,1,02,101,24,097,27,104,30,353,28*6E
,1600071662000
NMEA,$BDGSV,1,1,03,213,66,005,25,214,23,011,31,224,48,088,22*65
,1600071662000
NMEA,$GPGSA,A,3,18,24,20,,,,,,,,,,3.2,2.4,2.2*38
,1600071662000
NMEA,$GNGSA,A,3,78,,,,,,,,,,,,3.2,2.4,2.2*24
,1600071662000
NMEA,$QZGSA,A,3,193,,,,,,,,,,,,3.2,2.4,2.2*12
,1600071662000
NMEA,$GAGSA,A,3,101,104,,,,,,,,,,,3.2,2.4,2.2*21
,1600071662000
NMEA,$BDGSA,A,3,213,214,224,,,,,,,,,,3.2,2.4,2.2*17
,1600071662000
NMEA,$GPRMC,082103.726,A,0120.6049,N,10340.9112,E,5.3,330.1,140920,,,A*69
,1600071662000
NMEA,$PSAMCLK,2123,11648173,10,9671268,42916,116481726*72
,1600071662000
NMEA,$GPGGA,082104.000,0120.6050,N,10340.9106,E,1,09,2.6,28.6,M,3.1,M,,*58
,1600071662000
NMEA,$GPGLL,0120.6050,N,10340.9106,E,082104.000,A,A*5E
,1600071662000
NMEA,$GPVTG,325.6,T,,M,5.7,N,10.5,K,A*39
,1600071662000
Raw,19286678,17702203873,18,0.0,-1284106864297796096,0.0,10.19107723236084,61386.49609375,0.0,0,24,0.0,47,116481929814635,29,24.100000381469727,18760.689453125,0.27411526441574097,0,0.0,0.0,1.57542003E9,,,,0,18.700000762939453,1,-1.2999999523162842,1.57542003E9
Raw,19286678,17702203873,18,0.0,-1284106864297796096,0.0,10.19107723236084,61386.49609375,0.0,0,20,0.0,47,116481922855670,36,21.799999237060547,18052.064453125,0.35430842638015747,0,0.0,0.0,1.57542003E9,,,,0,17.5,1,-1.2999999523162842,1.57542003E9
Raw,19286678,17702203873,18,0.0,-1284106864297796096,0.0,10.19107723236084,61386.49609375,0.0,0,18,0.0,47,116481931120685,40,20.700000762939453,18047.400390625,0.40569597482681274,0,0.0,0.0,1.57542003E9,,,,0,18.200000762939453,1,-1.2999999523162842,1.57542003E9
Raw,19286678,17702203873,18,0.0,-1284106864297796096,0.0,10.19107723236084,61386.49609375,0.0,0,14,0.0,815,116467917661681,18,30.5,18419.419921875,0.15378700196743011,0,0.0,0.0,1.56109798E9,,,,0,25.700000762939453,5,-1.2999999523162842,1.56109798E9
Raw,19286679,17702203873,18,0.0,-1284106864297796096,0.0,10.19107723236084,61386.49609375,0.0,0,4,0.0,7215,116481913222708,21,28.100000381469727,18647.048828125,0.18740276992321014,0,0.0,0.0,1.57542003E9,,,,0,20.700000762939453,6,-1.2999999523162842,1.57542003E9
Raw,19286679,17702203873,18,0.0,-1284106864297796096,0.0,10.19107723236084,61386.49609375,0.0,0,193,0.0,47,116481861999776,25,25.899999618530273,18267.228515625,0.2289324849843979,0,0.0,0.0,1.57542003E9,,,,0,22.200000762939453,4,-1.2999999523162842,1.57542003E9
Raw,19286679,17702203873,18,0.0,-1284106864297796096,0.0,10.19107723236084,61386.49609375,0.0,0,1,0.0,7215,116481911198400,24,26.700000762939453,18330.041015625,0.21236379444599152,0,0.0,0.0,1.57542003E9,,,,0,18.799999237060547,6,-1.2999999523162842,1.57542003E9
Raw,19286679,17702203873,18,0.0,-1284106864297796096,0.0,10.19107723236084,61386.49609375,0.0,0,14,0.0,239,40863924366242,28,24.799999237060547,18663.44921875,0.25507602095603943,0,0.0,0.0,1.59806246E9,,,,0,0.0,3,-1.2999999523162842,1.59806246E9
Raw,19286679,17702203873,18,0.0,-1284106864297796096,0.0,10.19107723236084,61386.49609375,0.0,0,13,0.0,815,116467880151409,28,24.600000381469727,18233.666015625,0.2603082060813904,0,0.0,0.0,1.56109798E9,,,,0,18.899999618530273,5,-1.2999999523162842,1.56109798E9
Raw,19286680,17702203873,18,0.0,-1284106864297796096,0.0,10.19107723236084,61386.49609375,0.0,0,24,0.0,815,116467923276119,37,21.5,18426.2734375,0.36730945110321045,0,0.0,0.0,1.56109798E9,,,,0,15.600000381469727,5,-1.2999999523162842,1.56109798E9
Raw,19286721,17702203873,18,0.0,-1284106864297796096,0.0,10.19107723236084,61386.49609375,0.0,0,24,0.0,47,116481929814635,29,24.100000381469727,18760.689453125,0.27411526441574097,0,0.0,0.0,1.57542003E9,,,,0,18.700000762939453,1,-1.2999999523162842,1.57542003E9
Raw,19286722,17702203873,18,0.0,-1284106864297796096,0.0,10.19107723236084,61386.49609375,0.0,0,20,0.0,47,116481922855670,36,21.799999237060547,18052.064453125,0.35430842638015747,0,0.0,0.0,1.57542003E9,,,,0,17.5,1,-1.2999999523162842,1.57542003E9
Raw,19286722,17702203873,18,0.0,-1284106864297796096,0.0,10.19107723236084,61386.49609375,0.0,0,18,0.0,47,116481931120685,40,20.700000762939453,18047.400390625,0.40569597482681274,0,0.0,0.0,1.57542003E9,,,,0,18.200000762939453,1,-1.2999999523162842,1.57542003E9
Raw,19286722,17702203873,18,0.0,-1284106864297796096,0.0,10.19107723236084,61386.49609375,0.0,0,14,0.0,815,116467917661681,18,30.5,18419.419921875,0.15378700196743011,0,0.0,0.0,1.56109798E9,,,,0,25.700000762939453,5,-1.2999999523162842,1.56109798E9
Raw,19286722,17702203873,18,0.0,-1284106864297796096,0.0,10.19107723236084,61386.49609375,0.0,0,4,0.0,7215,116481913222708,22,28.0,18647.048828125,0.18903592228889465,0,0.0,0.0,1.57542003E9,,,,0,20.700000762939453,6,-1.2999999523162842,1.57542003E9
Raw,19286722,17702203873,18,0.0,-1284106864297796096,0.0,10.19107723236084,61386.49609375,0.0,0,193,0.0,47,116481861999776,25,25.899999618530273,18267.228515625,0.2289324849843979,0,0.0,0.0,1.57542003E9,,,,0,22.200000762939453,4,-1.2999999523162842,1.57542003E9
Raw,19286723,17702203873,18,0.0,-1284106864297796096,0.0,10.19107723236084,61386.49609375,0.0,0,1,0.0,7215,116481911198400,24,26.600000381469727,18330.041015625,0.21433469653129578,0,0.0,0.0,1.57542003E9,,,,0,18.799999237060547,6,-1.2999999523162842,1.57542003E9
Raw,19286723,17702203873,18,0.0,-1284106864297796096,0.0,10.19107723236084,61386.49609375,0.0,0,14,0.0,239,40863924366242,28,24.700000762939453,18663.44921875,0.25767216086387634,0,0.0,0.0,1.59806246E9,,,,0,0.0,3,-1.2999999523162842,1.59806246E9
Raw,19286723,17702203873,18,0.0,-1284106864297796096,0.0,10.19107723236084,61386.49609375,0.0,0,13,0.0,815,116467880151409,28,24.600000381469727,18233.666015625,0.2603082060813904,0,0.0,0.0,1.56109798E9,,,,0,18.899999618530273,5,-1.2999999523162842,1.56109798E9
Raw,19286723,17702203873,18,0.0,-1284106864297796096,0.0,10.19107723236084,61386.49609375,0.0,0,24,0.0,815,116467923276119,37,21.5,18426.2734375,0.36730945110321045,0,0.0,0.0,1.56109798E9,,,,0,15.600000381469727,5,-1.2999999523162842,1.56109798E9
NMEA,$GPGSV,1,1,03,18,61,348,21,20,23,347,22,24,50,047,24*4D
,1600071662000
NMEA,$QZGSV,1,1,01,193,32,038,26*61
,1600071662000
NMEA,$GLGSV,1,1,01,78,19,061,25*53
,1600071662000
NMEA,$GAGSV,1,1,02,101,24,097,27,104,30,353,28*6E
,1600071662000
NMEA,$BDGSV,1,1,03,213,66,005,25,214,23,011,31,224,48,088,22*65
,1600071662000
NMEA,$GPGSA,A,3,18,24,,,,,,,,,,,3.8,2.6,2.6*36
,1600071662000
NMEA,$GNGSA,A,3,78,,,,,,,,,,,,3.8,2.6,2.6*28
,1600071662000
NMEA,$QZGSA,A,3,193,,,,,,,,,,,,3.8,2.6,2.6*1E
,1600071662000
NMEA,$GAGSA,A,3,101,104,,,,,,,,,,,3.8,2.6,2.6*2D
,1600071662000
NMEA,$BDGSA,A,3,213,214,224,,,,,,,,,,3.8,2.6,2.6*1B
,1600071662000
NMEA,$GPRMC,082104.000,A,0120.6050,N,10340.9106,E,5.7,325.6,140920,,,A*67
,1600071662000
NMEA,$PSAMCLK,2123,11648200,9,9670951,16809,116482000*43
,1600071662000
NMEA,$GPGGA,082104.000,0120.6050,N,10340.9106,E,1,09,2.6,28.6,M,3.1,M,,*58
,1600071662000
NMEA,$GPGLL,0120.6050,N,10340.9106,E,082104.000,A,A*5E
,1600071662000
NMEA,$GPVTG,325.6,T,,M,5.7,N,10.5,K,A*39
,1600071662000
NMEA,$GPGSV,1,1,03,18,61,348,21,20,23,347,22,24,50,047,24*4D
,1600071662000
NMEA,$QZGSV,1,1,01,193,32,038,26*61
,1600071662000
NMEA,$GLGSV,1,1,01,78,19,061,25*53
,1600071662000
NMEA,$GAGSV,1,1,02,101,24,097,27,104,30,353,28*6E
,1600071662000
NMEA,$BDGSV,1,1,03,213,66,005,25,214,23,011,31,224,48,088,22*65
,1600071662000
NMEA,$GPGSA,A,3,18,24,,,,,,,,,,,3.8,2.6,2.6*36
,1600071662000
NMEA,$GNGSA,A,3,78,,,,,,,,,,,,3.8,2.6,2.6*28
,1600071662000
NMEA,$QZGSA,A,3,193,,,,,,,,,,,,3.8,2.6,2.6*1E
,1600071662000
NMEA,$GAGSA,A,3,101,104,,,,,,,,,,,3.8,2.6,2.6*2D
,1600071662000
NMEA,$BDGSA,A,3,213,214,224,,,,,,,,,,3.8,2.6,2.6*1B
,1600071662000
NMEA,$GPRMC,082104.000,A,0120.6050,N,10340.9106,E,5.7,325.6,140920,,,A*67
,1600071662000
NMEA,$PSAMCLK,2123,11648200,9,9670951,16809,116482000*43
,1600071662000
NMEA,$GPGGA,082105.000,0120.6065,N,10340.9085,E,1,10,2.4,32.2,M,3.1,M,,*50
,1600071663000
NMEA,$GPGLL,0120.6065,N,10340.9085,E,082105.000,A,A*53
,1600071663000
NMEA,$GPVTG,327.9,T,,M,5.1,N,9.5,K,A*0A
,1600071663000
NMEA,$GPGSV,1,1,03,18,61,348,21,20,23,347,22,24,50,047,24*4D
,1600071663000
NMEA,$QZGSV,1,1,01,193,32,038,26*61
,1600071663000
NMEA,$GLGSV,1,1,01,78,19,061,25*53
,1600071663000
NMEA,$GAGSV,1,1,02,101,24,097,27,104,30,353,28*6E
,1600071663000
Raw,19287714,18702265273,18,0.0,-1284106864297734656,0.0,10.19107723236084,61387.3125,0.0,0,24,0.0,47,116482929813469,29,24.100000381469727,18760.974609375,0.27411526441574097,0,0.0,0.0,1.57542003E9,,,,0,17.899999618530273,1,-1.2999999523162842,1.57542003E9
Raw,19287715,18702265273,18,0.0,-1284106864297734656,0.0,10.19107723236084,61387.3125,0.0,0,20,0.0,47,116482922856854,36,21.799999237060547,18052.498046875,0.35430842638015747,0,0.0,0.0,1.57542003E9,,,,0,17.600000381469727,1,-1.2999999523162842,1.57542003E9
Raw,19287715,18702265273,18,0.0,-1284106864297734656,0.0,10.19107723236084,61387.3125,0.0,0,18,0.0,47,116482931121884,38,21.200000762939453,18047.66796875,0.38103944063186646,0,0.0,0.0,1.57542003E9,,,,0,17.700000762939453,1,-1.2999999523162842,1.57542003E9
Raw,19287716,18702265273,18,0.0,-1284106864297734656,0.0,10.19107723236084,61387.3125,0.0,0,14,0.0,815,116468917661673,18,30.5,18419.537109375,0.15378700196743011,0,0.0,0.0,1.56109798E9,,,,0,24.700000762939453,5,-1.2999999523162842,1.56109798E9
Raw,19287717,18702265273,18,0.0,-1284106864297734656,0.0,10.19107723236084,61387.3125,0.0,0,4,0.0,7215,116482913221914,22,27.899999618530273,18647.46875,0.19069050252437592,0,0.0,0.0,1.57542003E9,,,,0,20.799999237060547,6,-1.2999999523162842,1.57542003E9
Raw,19287717,18702265273,18,0.0,-1284106864297734656,0.0,10.19107723236084,61387.3125,0.0,0,193,0.0,47,116482862000220,25,26.0,18267.39453125,0.22675736248493195,0,0.0,0.0,1.57542003E9,,,,0,22.399999618530273,4,-1.2999999523162842,1.57542003E9
Raw,19287717,18702265273,18,0.0,-1284106864297734656,0.0,10.19107723236084,61387.3125,0.0,0,1,0.0,7215,116482911198659,24,26.5,18328.328125,0.21633315086364746,0,0.0,0.0,1.57542003E9,,,,0,21.200000762939453,6,-1.2999999523162842,1.57542003E9
Raw,19287718,18702265273,18,0.0,-1284106864297734656,0.0,10.19107723236084,61387.3125,0.0,0,13,0.0,815,116468880152013,28,24.600000381469727,18233.400390625,0.2603082060813904,0,0.0,0.0,1.56109798E9,,,,0,20.399999618530273,5,-1.2999999523162842,1.56109798E9
Raw,19287718,18702265273,18,0.0,-1284106864297734656,0.0,10.19107723236084,61387.3125,0.0,0,14,0.0,239,40864924365301,28,24.700000762939453,18663.11328125,0.25767216086387634,0,0.0,0.0,1.59806246E9,,,,0,18.799999237060547,3,-1.2999999523162842,1.59806246E9
Raw,19287719,18702265273,18,0.0,-1284106864297734656,0.0,10.19107723236084,61387.3125,0.0,0,24,0.0,815,116468923276042,37,21.5,18426.515625,0.36730945110321045,0,0.0,0.0,1.56109798E9,,,,0,18.200000762939453,5,-1.2999999523162842,1.56109798E9
Raw,19287764,18702265273,18,0.0,-1284106864297734656,0.0,10.19107723236084,61387.3125,0.0,0,24,0.0,47,116482929813469,29,24.100000381469727,18760.974609375,0.27411526441574097,0,0.0,0.0,1.57542003E9,,,,0,17.899999618530273,1,-1.2999999523162842,1.57542003E9
Raw,19287764,18702265273,18,0.0,-1284106864297734656,0.0,10.19107723236084,61387.3125,0.0,0,20,0.0,47,116482922856854,36,21.799999237060547,18052.498046875,0.35430842638015747,0,0.0,0.0,1.57542003E9,,,,0,17.600000381469727,1,-1.2999999523162842,1.57542003E9
Raw,19287764,18702265273,18,0.0,-1284106864297734656,0.0,10.19107723236084,61387.3125,0.0,0,18,0.0,47,116482931121884,38,21.200000762939453,18047.66796875,0.38103944063186646,0,0.0,0.0,1.57542003E9,,,,0,17.700000762939453,1,-1.2999999523162842,1.57542003E9
Raw,19287764,18702265273,18,0.0,-1284106864297734656,0.0,10.19107723236084,61387.3125,0.0,0,14,0.0,815,116468917661673,18,30.5,18419.537109375,0.15378700196743011,0,0.0,0.0,1.56109798E9,,,,0,24.700000762939453,5,-1.2999999523162842,1.56109798E9
Raw,19287765,18702265273,18,0.0,-1284106864297734656,0.0,10.19107723236084,61387.3125,0.0,0,4,0.0,7215,116482913221914,22,27.899999618530273,18647.46875,0.19069050252437592,0,0.0,0.0,1.57542003E9,,,,0,20.799999237060547,6,-1.2999999523162842,1.57542003E9
Raw,19287765,18702265273,18,0.0,-1284106864297734656,0.0,10.19107723236084,61387.3125,0.0,0,193,0.0,47,116482862000220,25,26.0,18267.39453125,0.22675736248493195,0,0.0,0.0,1.57542003E9,,,,0,22.399999618530273,4,-1.2999999523162842,1.57542003E9
Raw,19287765,18702265273,18,0.0,-1284106864297734656,0.0,10.19107723236084,61387.3125,0.0,0,1,0.0,7215,116482911198659,24,26.399999618530273,18328.328125,0.21835967898368835,0,0.0,0.0,1.57542003E9,,,,0,21.200000762939453,6,-1.2999999523162842,1.57542003E9
Raw,19287765,18702265273,18,0.0,-1284106864297734656,0.0,10.19107723236084,61387.3125,0.0,0,13,0.0,815,116468880152013,28,24.600000381469727,18233.400390625,0.2603082060813904,0,0.0,0.0,1.56109798E9,,,,0,20.399999618530273,5,-1.2999999523162842,1.56109798E9
Raw,19287765,18702265273,18,0.0,-1284106864297734656,0.0,10.19107723236084,61387.3125,0.0,0,14,0.0,239,40864924365301,28,24.600000381469727,18663.11328125,0.2603082060813904,0,0.0,0.0,1.59806246E9,,,,0,18.799999237060547,3,-1.2999999523162842,1.59806246E9
Raw,19287765,18702265273,18,0.0,-1284106864297734656,0.0,10.19107723236084,61387.3125,0.0,0,24,0.0,815,116468923276042,37,21.5,18426.515625,0.36730945110321045,0,0.0,0.0,1.56109798E9,,,,0,18.200000762939453,5,-1.2999999523162842,1.56109798E9
Fix,gps,1.343442,103.681809,35.000000,2.630000,34.500000,1600071665000
NMEA,$BDGSV,1,1,03,213,66,005,25,214,23,011,31,224,48,088,22*65
,1600071663000
NMEA,$GPGSA,A,3,18,24,20,,,,,,,,,,3.2,2.4,2.2*38
,1600071663000
NMEA,$GNGSA,A,3,78,,,,,,,,,,,,3.2,2.4,2.2*24
,1600071663000
NMEA,$QZGSA,A,3,193,,,,,,,,,,,,3.2,2.4,2.2*12
,1600071663000
NMEA,$GAGSA,A,3,101,104,,,,,,,,,,,3.2,2.4,2.2*21
,1600071663000
NMEA,$BDGSA,A,3,213,214,224,,,,,,,,,,3.2,2.4,2.2*17
,1600071663000
NMEA,$GPRMC,082105.000,A,0120.6065,N,10340.9085,E,5.1,327.9,140920,,,A*61
,1600071663000
NMEA,$PSAMCLK,2123,11648300,10,9671080,78187,116483000*78
,1600071663000
NMEA,$GPGGA,082105.000,0120.6065,N,10340.9085,E,1,10,2.4,32.2,M,3.1,M,,*50
,1600071663000
NMEA,$GPGLL,0120.6065,N,10340.9085,E,082105.000,A,A*53
,1600071663000
NMEA,$GPVTG,327.9,T,,M,5.1,N,9.5,K,A*0A
,1600071663000
NMEA,$GPGSV,1,1,03,18,61,348,21,20,23,347,22,24,50,047,24*4D
,1600071663000
NMEA,$QZGSV,1,1,01,193,32,038,26*61
,1600071663000
NMEA,$GLGSV,1,1,01,78,19,061,25*53
,1600071663000
NMEA,$GAGSV,1,1,02,101,24,097,26,104,30,353,28*6F
,1600071663000
NMEA,$BDGSV,1,1,03,213,66,005,25,214,23,011,31,224,48,088,22*65
,1600071663000
NMEA,$GPGSA,A,3,18,24,20,,,,,,,,,,3.2,2.4,2.2*38
,1600071663000
NMEA,$GNGSA,A,3,78,,,,,,,,,,,,3.2,2.4,2.2*24
,1600071663000
NMEA,$QZGSA,A,3,193,,,,,,,,,,,,3.2,2.4,2.2*12
,1600071663000
NMEA,$GAGSA,A,3,101,104,,,,,,,,,,,3.2,2.4,2.2*21
,1600071663000
NMEA,$BDGSA,A,3,213,214,224,,,,,,,,,,3.2,2.4,2.2*17
,1600071663000
NMEA,$GPRMC,082105.000,A,0120.6065,N,10340.9085,E,5.1,327.9,140920,,,A*61
,1600071663000
NMEA,$PSAMCLK,2123,11648300,10,9671080,78187,116483000*78
,1600071663000
NMEA,$GPGGA,082106.000,0120.6073,N,10340.9085,E,1,10,2.4,33.9,M,3.1,M,,*5E
,1600071664000
NMEA,$GPGLL,0120.6073,N,10340.9085,E,082106.000,A,A*57
,1600071664000
NMEA,$GPVTG,333.9,T,,M,5.1,N,9.5,K,A*0F
,1600071664000
NMEA,$GPGSV,1,1,03,18,61,348,21,20,23,347,22,24,50,047,24*4D
,1600071664000
Nav,24,257,0,4,4,1,1,1,1,1,1,1,1,1,1,1,1,1,1,1,1,1,1,1,1,-31,19,-96,-79,10,39,9,90,-70,-69,-117,-71,-114,-32,24,-67,-3,19,50,-81
NMEA,$QZGSV,1,1,01,193,32,038,26*61
,1600071664000
Nav,24,257,0,4,4,1,1,1,1,1,1,1,1,1,1,1,1,1,1,1,1,1,1,1,1,-31,19,-96,-79,10,39,9,90,-70,-69,-117,-71,-114,-32,24,-67,-3,19,50,-81
NMEA,$GLGSV,1,1,01,78,19,061,25*53
,1600071664000
Raw,19288751,19702326612,18,0.0,-1284106864297673472,0.0,10.19107723236084,61387.3359375,0.0,0,24,0.0,47,116483929812229,29,24.100000381469727,18761.462890625,0.27411526441574097,0,0.0,0.0,1.57542003E9,,,,0,17.5,1,-1.2999999523162842,1.57542003E9
Raw,19288752,19702326612,18,0.0,-1284106864297673472,0.0,10.19107723236084,61387.3359375,0.0,0,20,0.0,47,116483922857967,36,21.799999237060547,18053.189453125,0.35430842638015747,0,0.0,0.0,1.57542003E9,,,,0,19.100000381469727,1,-1.2999999523162842,1.57542003E9
Raw,19288752,19702326612,18,0.0,-1284106864297673472,0.0,10.19107723236084,61387.3359375,0.0,0,18,0.0,47,116483931123008,38,21.200000762939453,18047.61328125,0.38103944063186646,0,0.0,0.0,1.57542003E9,,,,0,17.100000381469727,1,-1.2999999523162842,1.57542003E9
Raw,19288752,19702326612,18,0.0,-1284106864297673472,0.0,10.19107723236084,61387.3359375,0.0,0,14,0.0,815,116469917661584,18,30.5,18418.83984375,0.15378700196743011,0,0.0,0.0,1.56109798E9,,,,0,26.600000381469727,5,-1.2999999523162842,1.56109798E9
Raw,19288752,19702326612,18,0.0,-1284106864297673472,0.0,10.19107723236084,61387.3359375,0.0,0,4,0.0,7215,116483913221023,22,27.799999237060547,18648.083984375,0.19236689805984497,0,0.0,0.0,1.57542003E9,,,,0,22.0,6,-1.2999999523162842,1.57542003E9
