# 
# Header Description:
# 
# Version: v2.0.0.1 Platform: 9 Manufacturer: samsung Model: SM-A507FN
# 
# Raw,ElapsedRealtimeMillis,TimeNanos,LeapSecond,TimeUncertaintyNanos,FullBiasNanos,BiasNanos,BiasUncertaintyNanos,DriftNanosPerSecond,DriftUncertaintyNanosPerSecond,HardwareClockDiscontinuityCount,Svid,TimeOffsetNanos,State,ReceivedSvTimeNanos,ReceivedSvTimeUncertaintyNanos,Cn0DbHz,PseudorangeRateMetersPerSecond,PseudorangeRateUncertaintyMetersPerSecond,AccumulatedDeltaRangeState,AccumulatedDeltaRangeMeters,AccumulatedDeltaRangeUncertaintyMeters,CarrierFrequencyHz,CarrierCycles,CarrierPhase,CarrierPhaseUncertainty,MultipathIndicator,SnrInDb,ConstellationType,AgcDb,CarrierFrequencyHz
# 
# Fix,Provider,Latitude,Longitude,Altitude,Speed,Accuracy,(UTC)TimeInMs
# 
# Nav,Svid,Type,Status,MessageId,Sub-messageId,Data(Bytes)
# 
Raw,178735367,0,,,-9223372036854775808,,,,,0,15,0.0,47,275938932170314,34,22.399999618530273,18161.734375,0.3302946388721466,0,0.0,0.0,1.57542003E9,,,,0,17.100000381469727,1,-2.5999999046325684,1.57542003E9
Raw,178735367,0,,,-9223372036854775808,,,,,0,12,0.0,47,275938925465125,35,22.0,18650.150390625,0.34602075815200806,0,0.0,0.0,1.57542003E9,,,,0,12.699999809265137,1,-2.5999999046325684,1.57542003E9
Raw,178735379,0,,,-9223372036854775808,,,,,0,15,0.0,47,275938932170314,34,22.399999618530273,18161.734375,0.3302946388721466,0,0.0,0.0,1.57542003E9,,,,0,17.100000381469727,1,-2.5999999046325684,1.57542003E9
Raw,178735379,0,,,-9223372036854775808,,,,,0,12,0.0,47,275938925465125,35,22.0,18650.150390625,0.34602075815200806,0,0.0,0.0,1.57542003E9,,,,0,12.699999809265137,1,-2.5999999046325684,1.57542003E9
NMEA,$GPGGA,043841.000,,,,,0,,,,,,,,*72,1600231120000
NMEA,$GPGLL,0120.9337,N,10342.5378,E,043841.000,V,N*4B,1600231120000
NMEA,$GPVTG,0.0,T,,M,0.0,N,0.0,K,N*02,1600231120000
NMEA,$GPGSV,1,1,02,12,37,228,22,15,71,219,22*7C,1600231120000
NMEA,$GPRMC,043841.000,V,,,,,,,160920,,,N*4B,1600231120000
NMEA,$PSAMCLK,2123,27593900,0,9672192,41877837,275939000*78,1600231120000
NMEA,$GPGGA,043841.000,,,,,0,,,,,,,,*72,1600231120000
NMEA,$GPGLL,0120.9337,N,10342.5378,E,043841.000,V,N*4B,1600231120000
NMEA,$GPVTG,0.0,T,,M,0.0,N,0.0,K,N*02,1600231120000
NMEA,$GPGSV,1,1,02,12,37,228,22,15,71,219,22*7C,1600231120000
NMEA,$GPRMC,043841.000,V,,,,,,,160920,,,N*4B,1600231120000
NMEA,$PSAMCLK,2123,27593900,0,9672192,41877837,275939000*78,1600231120000
Nav,15,257,0,16,5,16,-53,64,-19,95,-115,-124,11,16,-38,61,-12,-41,-42,-67,16,-25,-53,57,-31,29,106,79,-42,88,-77,6,106,82,-15,-54,12,43,73,-16,-102,31,-48,-71,-3
Nav,15,257,0,16,5,16,-53,64,-19,95,-115,-124,11,16,-38,61,-12,-41,-42,-67,16,-25,-53,57,-31,29,106,79,-42,88,-77,6,106,82,-15,-54,12,43,73,-16,-102,31,-48,-71,-3
Raw,178736341,0,,,-9223372036854775808,,,,,0,15,0.0,47,275939932171173,33,22.600000381469727,18161.1640625,0.32283055782318115,0,0.0,0.0,1.57542003E9,,,,0,20.799999237060547,1,-2.5999999046325684,1.57542003E9
Raw,178736341,0,,,-9223372036854775808,,,,,0,12,0.0,47,275939925464284,35,22.0,18649.28515625,0.34602075815200806,0,0.0,0.0,1.57542003E9,,,,0,16.299999237060547,1,-2.5999999046325684,1.57542003E9
Raw,178736376,0,,,-9223372036854775808,,,,,0,15,0.0,47,275939932171173,33,22.600000381469727,18161.1640625,0.32283055782318115,0,0.0,0.0,1.57542003E9,,,,0,20.799999237060547,1,-2.5999999046325684,1.57542003E9
Raw,178736377,0,,,-9223372036854775808,,,,,0,12,0.0,47,275939925464284,35,22.0,18649.28515625,0.34602075815200806,0,0.0,0.0,1.57542003E9,,,,0,16.299999237060547,1,-2.5999999046325684,1.57542003E9
Nav,12,257,0,42,5,24,75,-64,-54,35,50,126,12,25,-6,-73,-22,-25,-79,-70,112,-40,-6,-7,-63,26,-30,-68,39,-59,82,57,-107,29,67,10,91,-34,-46,18,64,-16,-24,-83,-97
Nav,12,257,0,42,5,24,75,-64,-54,35,50,126,12,25,-6,-73,-22,-25,-79,-70,112,-40,-6,-7,-63,26,-30,-68,39,-59,82,57,-107,29,67,10,91,-34,-46,18,64,-16,-24,-83,-97
NMEA,$GPGGA,043842.000,,,,,0,,,,,,,,*71,1600231121000
NMEA,$GPGLL,0120.9337,N,10342.5378,E,043842.000,V,N*48,1600231121000
NMEA,$GPVTG,0.0,T,,M,0.0,N,0.0,K,N*02,1600231121000
NMEA,$GPGSV,1,1,02,12,37,228,22,15,71,219,23*7D,1600231121000
NMEA,$GPRMC,043842.000,V,,,,,,,160920,,,N*48,1600231121000
NMEA,$PSAMCLK,2123,27594000,0,9671561,41939228,275940000*7C,1600231121000
NMEA,$GPGGA,043842.000,,,,,0,,,,,,,,*71,1600231121000
NMEA,$GPGLL,0120.9337,N,10342.5378,E,043842.000,V,N*48,1600231121000
NMEA,$GPVTG,0.0,T,,M,0.0,N,0.0,K,N*02,1600231121000
NMEA,$GPGSV,1,1,02,12,37,228,22,15,71,219,23*7D,1600231121000
NMEA,$GPRMC,043842.000,V,,,,,,,160920,,,N*48,1600231121000
NMEA,$PSAMCLK,2123,27594000,0,9671561,41939228,275940000*7C,1600231121000
Raw,178737337,0,,,-9223372036854775808,,,,,0,15,0.0,47,275940932171973,33,22.799999237060547,18159.310546875,0.31561675667762756,0,0.0,0.0,1.57542003E9,,,,0,20.700000762939453,1,-2.5999999046325684,1.57542003E9
Raw,178737337,0,,,-9223372036854775808,,,,,0,12,0.0,47,275940925463475,36,21.899999618530273,18650.396484375,0.35012781620025635,0,0.0,0.0,1.57542003E9,,,,0,18.600000381469727,1,-2.5999999046325684,1.57542003E9
Raw,178737377,0,,,-9223372036854775808,,,,,0,15,0.0,47,275940932171973,33,22.799999237060547,18159.310546875,0.31561675667762756,0,0.0,0.0,1.57542003E9,,,,0,20.700000762939453,1,-2.5999999046325684,1.57542003E9
Raw,178737378,0,,,-9223372036854775808,,,,,0,12,0.0,47,275940925463475,36,21.899999618530273,18650.396484375,0.35012781620025635,0,0.0,0.0,1.57542003E9,,,,0,18.600000381469727,1,-2.5999999046325684,1.57542003E9
NMEA,$GPGGA,043843.000,,,,,0,,,,,,,,*70,1600231122000
NMEA,$GPGLL,0120.9337,N,10342.5378,E,043843.000,V,N*49,1600231122000
NMEA,$GPVTG,0.0,T,,M,0.0,N,0.0,K,N*02,1600231122000
NMEA,$GPGSV,1,1,02,12,37,228,22,15,71,219,23*7D,1600231122000
NMEA,$GPRMC,043843.000,V,,,,,,,160920,,,N*49,1600231122000
NMEA,$PSAMCLK,2123,27594100,0,9671561,42000618,275941000*7B,1600231122000
NMEA,$GPGGA,043843.000,,,,,0,,,,,,,,*70,1600231122000
NMEA,$GPGLL,0120.9337,N,10342.5378,E,043843.000,V,N*49,1600231122000
NMEA,$GPVTG,0.0,T,,M,0.0,N,0.0,K,N*02,1600231122000
NMEA,$GPGSV,1,1,02,12,37,228,22,15,71,219,23*7D,1600231122000
NMEA,$GPRMC,043843.000,V,,,,,,,160920,,,N*49,1600231122000
NMEA,$PSAMCLK,2123,27594100,0,9671561,42000618,275941000*7B,1600231122000
Raw,178738389,0,,,-9223372036854775808,,,,,0,15,0.0,47,275941932172775,32,23.0,18160.51171875,0.3086419701576233,0,0.0,0.0,1.57542003E9,,,,0,19.399999618530273,1,-3.9000000953674316,1.57542003E9
Raw,178738390,0,,,-9223372036854775808,,,,,0,12,0.0,47,275941925462701,36,21.899999618530273,18650.013671875,0.35012781620025635,0,0.0,0.0,1.57542003E9,,,,0,15.199999809265137,1,-3.9000000953674316,1.57542003E9
Raw,178738426,0,,,-9223372036854775808,,,,,0,15,0.0,47,275941932172775,32,23.0,18160.51171875,0.3086419701576233,0,0.0,0.0,1.57542003E9,,,,0,19.399999618530273,1,-3.9000000953674316,1.57542003E9
Raw,178738426,0,,,-9223372036854775808,,,,,0,12,0.0,47,275941925462701,36,21.899999618530273,18650.013671875,0.35012781620025635,0,0.0,0.0,1.57542003E9,,,,0,15.199999809265137,1,-3.9000000953674316,1.57542003E9
NMEA,$GPGGA,043844.000,,,,,0,,,,,,,,*77,1600231123000
NMEA,$GPGLL,0120.9337,N,10342.5378,E,043844.000,V,N*4E,1600231123000
NMEA,$GPVTG,0.0,T,,M,0.0,N,0.0,K,N*02,1600231123000
NMEA,$GPGSV,1,1,02,12,37,228,22,15,71,219,23*7D,1600231123000
NMEA,$GPRMC,043844.000,V,,,,,,,160920,,,N*4E,1600231123000
NMEA,$PSAMCLK,2123,27594200,0,9671561,42062008,275942000*78,1600231123000
NMEA,$GPGGA,043844.000,,,,,0,,,,,,,,*77,1600231123000
NMEA,$GPGLL,0120.9337,N,10342.5378,E,043844.000,V,N*4E,1600231123000
NMEA,$GPVTG,0.0,T,,M,0.0,N,0.0,K,N*02,1600231123000
NMEA,$GPGSV,1,1,02,12,37,228,22,15,71,219,23*7D,1600231123000
NMEA,$GPRMC,043844.000,V,,,,,,,160920,,,N*4E,1600231123000
NMEA,$PSAMCLK,2123,27594200,0,9671561,42062008,275942000*78,1600231123000
Raw,178739361,0,,,-9223372036854775808,,,,,0,15,0.0,47,275942932173527,32,23.100000381469727,18161.26171875,0.3052409589290619,0,0.0,0.0,1.57542003E9,,,,0,21.399999618530273,1,-3.9000000953674316,1.57542003E9
Raw,178739361,0,,,-9223372036854775808,,,,,0,12,0.0,47,275942925461808,36,21.799999237060547,18648.892578125,0.35430842638015747,0,0.0,0.0,1.57542003E9,,,,0,14.199999809265137,1,-3.9000000953674316,1.57542003E9
Raw,178739378,0,,,-9223372036854775808,,,,,0,15,0.0,47,275942932173527,32,23.100000381469727,18161.26171875,0.3052409589290619,0,0.0,0.0,1.57542003E9,,,,0,21.399999618530273,1,-3.9000000953674316,1.57542003E9
Raw,178739378,0,,,-9223372036854775808,,,,,0,12,0.0,47,275942925461808,36,21.799999237060547,18648.892578125,0.35430842638015747,0,0.0,0.0,1.57542003E9,,,,0,14.199999809265137,1,-3.9000000953674316,1.57542003E9
NMEA,$GPGGA,043845.000,,,,,0,,,,,,,,*76,1600231124000
NMEA,$GPGLL,0120.9337,N,10342.5378,E,043845.000,V,N*4F,1600231124000
NMEA,$GPVTG,0.0,T,,M,0.0,N,0.0,K,N*02,1600231124000
NMEA,$GPGSV,1,1,02,12,37,228,22,15,71,219,23*7D,1600231124000
NMEA,$GPRMC,043845.000,V,,,,,,,160920,,,N*4F,1600231124000
NMEA,$PSAMCLK,2123,27594300,0,9671813,42123400,275943000*78,1600231124000
NMEA,$GPGGA,043845.000,,,,,0,,,,,,,,*76,1600231124000
NMEA,$GPGLL,0120.9337,N,10342.5378,E,043845.000,V,N*4F,1600231124000
NMEA,$GPVTG,0.0,T,,M,0.0,N,0.0,K,N*02,1600231124000
NMEA,$GPGSV,1,1,02,12,37,228,22,15,71,219,23*7D,1600231124000
NMEA,$GPRMC,043845.000,V,,,,,,,160920,,,N*4F,1600231124000
NMEA,$PSAMCLK,2123,27594300,0,9671813,42123400,275943000*78,1600231124000
Raw,178740392,0,,,-9223372036854775808,,,,,0,15,0.0,47,275943932174342,32,23.100000381469727,18161.41015625,0.3052409589290619,0,0.0,0.0,1.57542003E9,,,,0,15.899999618530273,1,-1.2999999523162842,1.57542003E9
Raw,178740392,0,,,-9223372036854775808,,,,,0,12,0.0,47,275943925460973,36,21.899999618530273,18650.900390625,0.35012781620025635,0,0.0,0.0,1.57542003E9,,,,0,25.200000762939453,1,-1.2999999523162842,1.57542003E9
Raw,178740402,0,,,-9223372036854775808,,,,,0,15,0.0,47,275943932174342,32,23.100000381469727,18161.41015625,0.3052409589290619,0,0.0,0.0,1.57542003E9,,,,0,15.899999618530273,1,-1.2999999523162842,1.57542003E9
Raw,178740402,0,,,-9223372036854775808,,,,,0,12,0.0,47,275943925460973,36,21.899999618530273,18650.900390625,0.35012781620025635,0,0.0,0.0,1.57542003E9,,,,0,25.200000762939453,1,-1.2999999523162842,1.57542003E9
NMEA,$GPGGA,043846.000,,,,,0,,,,,,,,*75,1600231125000
NMEA,$GPGLL,0120.9337,N,10342.5378,E,043846.000,V,N*4C,1600231125000
NMEA,$GPVTG,0.0,T,,M,0.0,N,0.0,K,N*02,1600231125000
NMEA,$GPGSV,1,1,02,12,37,228,22,15,71,219,23*7D,1600231125000
NMEA,$GPRMC,043846.000,V,,,,,,,160920,,,N*4C,1600231125000
NMEA,$PSAMCLK,2123,27594400,0,9671813,42184792,275944000*7D,1600231125000
NMEA,$GPGGA,043846.000,,,,,0,,,,,,,,*75,1600231125000
NMEA,$GPGLL,0120.9337,N,10342.5378,E,043846.000,V,N*4C,1600231125000
NMEA,$GPVTG,0.0,T,,M,0.0,N,0.0,K,N*02,1600231125000
NMEA,$GPGSV,1,1,02,12,37,228,22,15,71,219,23*7D,1600231125000
NMEA,$GPRMC,043846.000,V,,,,,,,160920,,,N*4C,1600231125000
NMEA,$PSAMCLK,2123,27594400,0,9671813,42184792,275944000*7D,1600231125000
Raw,178741382,0,,,-9223372036854775808,,,,,0,12,0.0,47,275944925460176,21,28.600000381469727,18653.62890625,0.17954610288143158,0,0.0,0.0,1.57542003E9,,,,0,22.899999618530273,1,-1.2999999523162842,1.57542003E9
Raw,178741383,0,,,-9223372036854775808,,,,,0,15,0.0,47,275944932175191,32,23.100000381469727,18161.40234375,0.3052409589290619,0,0.0,0.0,1.57542003E9,,,,0,7.5,1,-1.2999999523162842,1.57542003E9
Raw,178741393,0,,,-9223372036854775808,,,,,0,12,0.0,47,275944925460176,21,28.600000381469727,18653.62890625,0.17954610288143158,0,0.0,0.0,1.57542003E9,,,,0,22.899999618530273,1,-1.2999999523162842,1.57542003E9
Raw,178741393,0,,,-9223372036854775808,,,,,0,15,0.0,47,275944932175191,32,23.0,18161.40234375,0.3086419701576233,0,0.0,0.0,1.57542003E9,,,,0,7.5,1,-1.2999999523162842,1.57542003E9
NMEA,$GPGGA,043847.000,,,,,0,,,,,,,,*74,1600231126000
NMEA,$GPGLL,0120.9337,N,10342.5378,E,043847.000,V,N*4D,1600231126000
NMEA,$GPVTG,0.0,T,,M,0.0,N,0.0,K,N*02,1600231126000
NMEA,$GPGSV,1,1,02,12,37,228,29,15,71,219,23*76,1600231126000
NMEA,$GPRMC,043847.000,V,,,,,,,160920,,,N*4D,1600231126000
NMEA,$PSAMCLK,2123,27594500,0,9671813,42246184,275945000*71,1600231126000
NMEA,$GPGGA,043847.000,,,,,0,,,,,,,,*74,1600231126000
NMEA,$GPGLL,0120.9337,N,10342.5378,E,043847.000,V,N*4D,1600231126000
NMEA,$GPVTG,0.0,T,,M,0.0,N,0.0,K,N*02,1600231126000
NMEA,$GPGSV,1,1,02,12,37,228,29,15,71,219,23*76,1600231126000
NMEA,$GPRMC,043847.000,V,,,,,,,160920,,,N*4D,1600231126000
NMEA,$PSAMCLK,2123,27594500,0,9671813,42246184,275945000*71,1600231126000
Nav,15,257,0,-1,1,103,-75,31,-33,96,9,-117,-15,-74,-1,73,1,78,74,22,-121,-7,10,-34,-82,42,-96,-125,122,-79,-86,-35,-112,107,51,67,80,9,96,-87,-60,-40,31,102,76
Nav,15,257,0,-1,1,103,-75,31,-33,96,9,-117,-15,-74,-1,73,1,78,74,22,-121,-7,10,-34,-82,42,-96,-125,122,-79,-86,-35,-112,107,51,67,80,9,96,-87,-60,-40,31,102,76
Raw,178742360,0,,,-9223372036854775808,,,,,0,12,0.0,47,275945925459388,21,28.399999618530273,18653.794921875,0.18262839317321777,0,0.0,0.0,1.57542003E9,,,,0,14.899999618530273,1,-2.5999999046325684,1.57542003E9
Raw,178742361,0,,,-9223372036854775808,,,,,0,15,0.0,47,275945932176008,32,23.0,18161.7734375,0.3086419701576233,0,0.0,0.0,1.57542003E9,,,,0,13.0,1,-2.5999999046325684,1.57542003E9
Nav,12,257,0,-1,1,-100,116,-58,0,-61,-98,-43,39,-128,-128,-75,-6,19,67,-119,42,-75,-128,-67,-63,107,-57,64,79,-107,-7,-126,-47,-114,-36,72,112,-4,-64,-57,-65,43,-109,-12,34
Nav,12,257,0,-1,1,-100,116,-58,0,-61,-98,-43,39,-128,-128,-75,-6,19,67,-119,42,-75,-128,-67,-63,107,-57,64,79,-107,-7,-126,-47,-114,-36,72,112,-4,-64,-57,-65,43,-109,-12,34
Raw,178742421,0,,,-9223372036854775808,,,,,0,12,0.0,47,275945925459388,21,28.100000381469727,18653.794921875,0.18740276992321014,0,0.0,0.0,1.57542003E9,,,,0,14.899999618530273,1,-2.5999999046325684,1.57542003E9
Raw,178742422,0,,,-9223372036854775808,,,,,0,15,0.0,47,275945932176008,33,22.899999618530273,18161.7734375,0.3121001422405243,0,0.0,0.0,1.57542003E9,,,,0,13.0,1,-2.5999999046325684,1.57542003E9
NMEA,$GPGGA,043848.000,,,,,0,,,,,,,,*7B,1600231127000
NMEA,$GPGLL,0120.9337,N,10342.5378,E,043848.000,V,N*42,1600231127000
NMEA,$GPVTG,0.0,T,,M,0.0,N,0.0,K,N*02,1600231127000
NMEA,$GPGSV,1,1,02,12,37,228,28,15,71,219,23*77,1600231127000
NMEA,$GPRMC,043848.000,V,,,,,,,160920,,,N*42,1600231127000
NMEA,$PSAMCLK,2123,27594600,0,9671813,42307576,275946000*7C,1600231127000
NMEA,$GPGGA,043848.000,,,,,0,,,,,,,,*7B,1600231127000
NMEA,$GPGLL,0120.9337,N,10342.5378,E,043848.000,V,N*42,1600231127000
NMEA,$GPVTG,0.0,T,,M,0.0,N,0.0,K,N*02,1600231127000
NMEA,$GPGSV,1,1,02,12,37,228,28,15,71,219,23*77,1600231127000
NMEA,$GPRMC,043848.000,V,,,,,,,160920,,,N*42,1600231127000
NMEA,$PSAMCLK,2123,27594600,0,9671813,42307576,275946000*7C,1600231127000
NMEA,$GPGGA,043849.000,,,,,0,,,,,,,,*7A,1600231128000
NMEA,$GPGLL,0120.9337,N,10342.5378,E,043849.000,V,N*43,1600231128000
NMEA,$GPVTG,0.0,T,,M,0.0,N,0.0,K,N*02,1600231128000
Raw,178743477,0,,,-9223372036854775808,,,,,0,12,0.0,47,275946925458545,22,27.799999237060547,18654.77734375,0.19236689805984497,0,0.0,0.0,1.57542003E9,,,,0,15.399999618530273,1,-2.5999999046325684,1.57542003E9
Raw,178743477,0,,,-9223372036854775808,,,,,0,15,0.0,47,275946932176837,33,22.799999237060547,18161.20703125,0.31561675667762756,0,0.0,0.0,1.57542003E9,,,,0,15.0,1,-2.5999999046325684,1.57542003E9
Raw,178743496,0,,,-9223372036854775808,,,,,0,12,0.0,47,275946925458545,22,27.5,18654.77734375,0.1975308656692505,0,0.0,0.0,1.57542003E9,,,,0,15.399999618530273,1,-2.5999999046325684,1.57542003E9
Raw,178743497,0,,,-9223372036854775808,,,,,0,15,0.0,47,275946932176837,33,22.799999237060547,18161.20703125,0.31561675667762756,0,0.0,0.0,1.57542003E9,,,,0,15.0,1,-2.5999999046325684,1.57542003E9
NMEA,$GPGSV,1,1,02,12,37,228,28,15,71,219,23*77,1600231128000
NMEA,$GPRMC,043849.000,V,,,,,,,160920,,,N*43,1600231128000
NMEA,$PSAMCLK,2123,27594700,0,9671813,42368968,275947000*76,1600231128000
NMEA,$GPGGA,043849.000,,,,,0,,,,,,,,*7A,1600231128000
NMEA,$GPGLL,0120.9337,N,10342.5378,E,043849.000,V,N*43,1600231128000
NMEA,$GPVTG,0.0,T,,M,0.0,N,0.0,K,N*02,1600231128000
NMEA,$GPGSV,1,1,02,12,37,228,28,15,71,219,23*77,1600231128000
NMEA,$GPRMC,043849.000,V,,,,,,,160920,,,N*43,1600231128000
NMEA,$PSAMCLK,2123,27594700,0,9671813,42368968,275947000*76,1600231128000
Raw,178744417,0,,,-9223372036854775808,,,,,0,12,0.0,47,275947925457682,23,27.100000381469727,18654.947265625,0.20474600791931152,0,0.0,0.0,1.57542003E9,,,,0,17.899999618530273,1,-2.5999999046325684,1.57542003E9
Raw,178744417,0,,,-9223372036854775808,,,,,0,15,0.0,47,275947932177673,33,22.700000762939453,18160.41015625,0.319193035364151,0,0.0,0.0,1.57542003E9,,,,0,14.899999618530273,1,-2.5999999046325684,1.57542003E9
Raw,178744441,0,,,-9223372036854775808,,,,,0,12,0.0,47,275947925457682,24,26.799999237060547,18654.947265625,0.21042001247406006,0,0.0,0.0,1.57542003E9,,,,0,17.899999618530273,1,-2.5999999046325684,1.57542003E9
Raw,178744441,0,,,-9223372036854775808,,,,,0,15,0.0,47,275947932177673,33,22.600000381469727,18160.41015625,0.32283055782318115,0,0.0,0.0,1.57542003E9,,,,0,14.899999618530273,1,-2.5999999046325684,1.57542003E9
NMEA,$GPGGA,043850.000,,,,,0,,,,,,,,*72,1600231129000
NMEA,$GPGLL,0120.9337,N,10342.5378,E,043850.000,V,N*4B,1600231129000
NMEA,$GPVTG,0.0,T,,M,0.0,N,0.0,K,N*02,1600231129000
NMEA,$GPGSV,1,1,03,05,23,010,22,12,37,228,27,15,71,219,23*4C,1600231129000
NMEA,$GPRMC,043850.000,V,,,,,,,160920,,,N*4B,1600231129000
NMEA,$PSAMCLK,2123,27594800,0,9671035,42430355,275948000*74,1600231129000
NMEA,$GPGGA,043850.000,,,,,0,,,,,,,,*72,1600231129000
NMEA,$GPGLL,0120.9337,N,10342.5378,E,043850.000,V,N*4B,1600231129000
NMEA,$GPVTG,0.0,T,,M,0.0,N,0.0,K,N*02,1600231129000
NMEA,$GPGSV,1,1,03,05,23,010,22,12,37,228,27,15,71,219,23*4C,1600231129000
NMEA,$GPRMC,043850.000,V,,,,,,,160920,,,N*4B,1600231129000
NMEA,$PSAMCLK,2123,27594800,0,9671035,42430355,275948000*74,1600231129000
Raw,178745426,0,,,-9223372036854775808,,,,,0,12,0.0,47,275948925456830,24,26.5,18654.837890625,0.21633315086364746,0,0.0,0.0,1.57542003E9,,,,0,19.200000762939453,1,-6.5,1.57542003E9
Raw,178745426,0,,,-9223372036854775808,,,,,0,15,0.0,47,275948932178464,34,22.5,18160.294921875,0.3265306055545807,0,0.0,0.0,1.57542003E9,,,,0,13.899999618530273,1,-6.5,1.57542003E9
Raw,178745443,0,,,-9223372036854775808,,,,,0,12,0.0,47,275948925456830,25,26.200000762939453,18654.837890625,0.2224990874528885,0,0.0,0.0,1.57542003E9,,,,0,19.200000762939453,1,-6.5,1.57542003E9
Raw,178745444,0,,,-9223372036854775808,,,,,0,15,0.0,47,275948932178464,34,22.399999618530273,18160.294921875,0.3302946388721466,0,0.0,0.0,1.57542003E9,,,,0,13.899999618530273,1,-6.5,1.57542003E9
NMEA,$GPGGA,043851.000,,,,,0,,,,,,,,*73,1600231130000
NMEA,$GPGLL,0120.9337,N,10342.5378,E,043851.000,V,N*4A,1600231130000
NMEA,$GPVTG,0.0,T,,M,0.0,N,0.0,K,N*02,1600231130000
NMEA,$GPGSV,1,1,03,05,23,010,21,12,37,228,27,15,71,219,23*4F,1600231130000
NMEA,$GPRMC,043851.000,V,,,,,,,160920,,,N*4A,1600231130000
NMEA,$PSAMCLK,2123,27594900,0,9671035,42491742,275949000*7D,1600231130000
NMEA,$GPGGA,043851.000,,,,,0,,,,,,,,*73,1600231130000
NMEA,$GPGLL,0120.9337,N,10342.5378,E,043851.000,V,N*4A,1600231130000
NMEA,$GPVTG,0.0,T,,M,0.0,N,0.0,K,N*02,1600231130000
NMEA,$GPGSV,1,1,03,05,23,010,19,12,37,228,26,15,71,219,22*44,1600231130000
NMEA,$GPRMC,043851.000,V,,,,,,,160920,,,N*4A,1600231130000
NMEA,$PSAMCLK,2123,27594900,0,9671035,42491742,275949000*7D,1600231130000
Raw,178746405,0,,,-9223372036854775808,,,,,0,12,0.0,47,275949925455981,25,25.899999618530273,18653.126953125,0.2289324849843979,0,0.0,0.0,1.57542003E9,,,,0,19.299999237060547,1,-6.5,1.57542003E9
Raw,178746406,0,,,-9223372036854775808,,,,,0,15,0.0,47,275949932179239,34,22.299999237060547,18159.779296875,0.3341241180896759,0,0.0,0.0,1.57542003E9,,,,0,13.800000190734863,1,-6.5,1.57542003E9
Raw,178746430,0,,,-9223372036854775808,,,,,0,12,0.0,47,275949925455981,26,25.600000381469727,18653.126953125,0.235648974776268,0,0.0,0.0,1.57542003E9,,,,0,19.299999237060547,1,-6.5,1.57542003E9
Raw,178746430,0,,,-9223372036854775808,,,,,0,15,0.0,47,275949932179239,35,22.200000762939453,18159.779296875,0.33802053332328796,0,0.0,0.0,1.57542003E9,,,,0,13.800000190734863,1,-6.5,1.57542003E9
NMEA,$GPGGA,043852.000,,,,,0,,,,,,,,*70,1600231131000
NMEA,$GPGLL,0120.9337,N,10342.5378,E,043852.000,V,N*49,1600231131000
NMEA,$GPVTG,0.0,T,,M,0.0,N,0.0,K,N*02,1600231131000
NMEA,$GPGSV,1,1,03,05,23,010,18,12,37,228,26,15,71,219,22*45,1600231131000
NMEA,$GPRMC,043852.000,V,,,,,,,160920,,,N*49,1600231131000
NMEA,$PSAMCLK,2123,27595000,0,9671035,42553129,275950000*79,1600231131000
NMEA,$GPGGA,043852.000,,,,,0,,,,,,,,*70,1600231131000
NMEA,$GPGLL,0120.9337,N,10342.5378,E,043852.000,V,N*49,1600231131000
NMEA,$GPVTG,0.0,T,,M,0.0,N,0.0,K,N*02,1600231131000
NMEA,$GPGSV,1,1,03,05,23,010,16,12,37,228,26,15,71,219,22*4B,1600231131000
NMEA,$GPRMC,043852.000,V,,,,,,,160920,,,N*49,1600231131000
NMEA,$PSAMCLK,2123,27595000,0,9671035,42553129,275950000*79,1600231131000
Raw,178747344,0,,,-9223372036854775808,,,,,0,12,0.0,47,275950925455172,26,25.399999618530273,18651.201171875,0.24029220640659332,0,0.0,0.0,1.57542003E9,,,,0,17.600000381469727,1,-6.5,1.57542003E9
Raw,178747345,0,,,-9223372036854775808,,,,,0,15,0.0,47,275950932180052,35,22.0,18159.7265625,0.34602075815200806,0,0.0,0.0,1.57542003E9,,,,0,9.300000190734863,1,-6.5,1.57542003E9
Raw,178747389,0,,,-9223372036854775808,,,,,0,12,0.0,47,275950925455172,27,25.200000762939453,18651.201171875,0.24507398903369904,0,0.0,0.0,1.57542003E9,,,,0,17.600000381469727,1,-6.5,1.57542003E9
Raw,178747391,0,,,-9223372036854775808,,,,,0,15,0.0,47,275950932180052,36,21.899999618530273,18159.7265625,0.35012781620025635,0,0.0,0.0,1.57542003E9,,,,0,9.300000190734863,1,-6.5,1.57542003E9
NMEA,$GPGGA,043853.000,,,,,0,,,,,,,,*71,1600231132000
NMEA,$GPGLL,0120.9337,N,10342.5378,E,043853.000,V,N*48,1600231132000
NMEA,$GPVTG,0.0,T,,M,0.0,N,0.0,K,N*02,1600231132000
NMEA,$GPGSV,1,1,03,05,23,010,15,12,37,228,25,15,71,219,22*4B,1600231132000
NMEA,$GPRMC,043853.000,V,,,,,,,160920,,,N*48,1600231132000
NMEA,$PSAMCLK,2123,27595100,0,9671035,42614516,275951000*71,1600231132000
NMEA,$GPGGA,043853.000,,,,,0,,,,,,,,*71,1600231132000
NMEA,$GPGLL,0120.9337,N,10342.5378,E,043853.000,V,N*48,1600231132000
NMEA,$GPVTG,0.0,T,,M,0.0,N,0.0,K,N*02,1600231132000
NMEA,$GPGSV,1,1,03,05,23,010,14,12,37,228,25,15,71,219,22*4A,1600231132000
NMEA,$GPRMC,043853.000,V,,,,,,,160920,,,N*48,1600231132000
NMEA,$PSAMCLK,2123,27595100,0,9671035,42614516,275951000*71,1600231132000
Nav,15,257,0,-1,2,-109,-35,45,13,-41,50,-44,-38,-120,-3,67,-50,-49,-24,49,4,8,-44,4,-6,82,59,-9,47,-97,-37,-39,-96,16,-34,21,-34,16,36,32,16,120,95,100,49
Nav,15,257,0,-1,2,-109,-35,45,13,-41,50,-44,-38,-120,-3,67,-50,-49,-24,49,4,8,-44,4,-6,82,59,-9,47,-97,-37,-39,-96,16,-34,21,-34,16,36,32,16,120,95,100,49
Nav,12,257,0,-1,2,64,-86,-18,-63,-83,121,-5,8,70,-9,57,104,-92,-56,-101,-106,84,83,115,54,39,-127,-32,32,1,16,15,-61,108,-123,45,71,93,116,79,0,-44,39,64,115
Nav,12,257,0,-1,2,64,-86,-18,-63,-83,121,-5,8,70,-9,57,104,-92,-56,-101,-106,84,83,115,54,39,-127,-32,32,1,16,15,-61,108,-123,45,71,93,116,79,0,-44,39,64,115
Nav,5,257,0,-1,2,1,1,1,1,1,1,1,1,1,1,1,1,1,1,1,1,1,1,1,1,1,1,1,1,1,1,1,1,1,1,1,1,6,0,0,0,-73,-13,57,-124
Nav,5,257,0,-1,2,1,1,1,1,1,1,1,1,1,1,1,1,1,1,1,1,1,1,1,1,1,1,1,1,1,1,1,1,1,1,1,1,6,0,0,0,-73,-13,57,-124
Raw,178748351,0,,,-9223372036854775808,,,,,0,12,0.0,47,275951925454387,27,24.899999618530273,18651.193359375,0.252518892288208,0,0.0,0.0,1.57542003E9,,,,0,17.799999237060547,1,-6.5,1.57542003E9
Raw,178748351,0,,,-9223372036854775808,,,,,0,15,0.0,47,275951932180917,36,21.799999237060547,18158.646484375,0.35430842638015747,0,0.0,0.0,1.57542003E9,,,,0,11.600000381469727,1,-6.5,1.57542003E9
Raw,178748381,0,,,-9223372036854775808,,,,,0,12,0.0,47,275951925454387,28,24.700000762939453,18651.193359375,0.25767216086387634,0,0.0,0.0,1.57542003E9,,,,0,17.799999237060547,1,-6.5,1.57542003E9
Raw,178748381,0,,,-9223372036854775808,,,,,0,15,0.0,47,275951932180917,36,21.700000762939453,18158.646484375,0.3585642874240875,0,0.0,0.0,1.57542003E9,,,,0,11.600000381469727,1,-6.5,1.57542003E9
NMEA,$GPGGA,043854.000,,,,,0,,,,,,,,*76,1600231133000
NMEA,$GPGLL,0120.9337,N,10342.5378,E,043854.000,V,N*4F,1600231133000
NMEA,$GPVTG,0.0,T,,M,0.0,N,0.0,K,N*02,1600231133000
NMEA,$GPGSV,1,1,03,05,23,010,18,12,37,228,25,15,71,219,22*46,1600231133000
NMEA,$GPRMC,043854.000,V,,,,,,,160920,,,N*4F,1600231133000
NMEA,$PSAMCLK,2123,27595200,0,9671035,42675903,275952000*7E,1600231133000
NMEA,$GPGGA,043854.000,,,,,0,,,,,,,,*76,1600231133000
NMEA,$GPGLL,0120.9337,N,10342.5378,E,043854.000,V,N*4F,1600231133000
NMEA,$GPVTG,0.0,T,,M,0.0,N,0.0,K,N*02,1600231133000
NMEA,$GPGSV,1,1,03,05,23,010,18,12,37,228,25,15,71,219,22*46,1600231133000
NMEA,$GPRMC,043854.000,V,,,,,,,160920,,,N*4F,1600231133000
NMEA,$PSAMCLK,2123,27595200,0,9671035,42675903,275952000*7E,1600231133000
Raw,178749391,0,,,-9223372036854775808,,,,,0,12,0.0,47,275952925453558,28,24.5,18651.453125,0.26298487186431885,0,0.0,0.0,1.57542003E9,,,,0,16.700000762939453,1,-6.5,1.57542003E9
Raw,178749391,0,,,-9223372036854775808,,,,,0,15,0.0,47,275952932181758,37,21.600000381469727,18157.775390625,0.3628973662853241,0,0.0,0.0,1.57542003E9,,,,0,12.199999809265137,1,-6.5,1.57542003E9
Raw,178749399,0,,,-9223372036854775808,,,,,0,12,0.0,47,275952925453558,29,24.399999618530273,18651.453125,0.2657030522823334,0,0.0,0.0,1.57542003E9,,,,0,16.700000762939453,1,-6.5,1.57542003E9
Raw,178749400,0,,,-9223372036854775808,,,,,0,15,0.0,47,275952932181758,37,21.5,18157.775390625,0.36730945110321045,0,0.0,0.0,1.57542003E9,,,,0,12.199999809265137,1,-6.5,1.57542003E9
NMEA,$GPGGA,043855.000,,,,,0,,,,,,,,*77,1600231134000
NMEA,$GPGLL,0120.9337,N,10342.5378,E,043855.000,V,N*4E,1600231134000
NMEA,$GPVTG,0.0,T,,M,0.0,N,0.0,K,N*02,1600231134000
NMEA,$GPGSV,1,1,03,05,23,010,18,12,37,228,25,15,71,219,22*46,1600231134000
NMEA,$GPRMC,043855.000,V,,,,,,,160920,,,N*4E,1600231134000
NMEA,$PSAMCLK,2123,27595300,0,9671035,42737290,275953000*78,1600231134000
NMEA,$GPGGA,043855.000,,,,,0,,,,,,,,*77,1600231134000
NMEA,$GPGLL,0120.9337,N,10342.5378,E,043855.000,V,N*4E,1600231134000
NMEA,$GPVTG,0.0,T,,M,0.0,N,0.0,K,N*02,1600231134000
NMEA,$GPGSV,1,1,03,05,23,010,18,12,37,228,24,15,71,219,22*47,1600231134000
NMEA,$GPRMC,043855.000,V,,,,,,,160920,,,N*4E,1600231134000
NMEA,$PSAMCLK,2123,27595300,0,9671035,42737290,275953000*78,1600231134000
Raw,178750377,0,,,-9223372036854775808,,,,,0,12,0.0,47,275953925452663,29,24.200000762939453,18649.939453125,0.2712673544883728,0,0.0,0.0,1.57542003E9,,,,0,14.800000190734863,1,-6.5,1.57542003E9
Raw,178750378,0,,,-9223372036854775808,,,,,0,15,0.0,47,275953932182562,38,21.299999237060547,18157.783203125,0.37637853622436523,0,0.0,0.0,1.57542003E9,,,,0,10.699999809265137,1,-6.5,1.57542003E9
Raw,178750388,0,,,-9223372036854775808,,,,,0,12,0.0,47,275953925452663,30,24.0,18649.939453125,0.2770083248615265,0,0.0,0.0,1.57542003E9,,,,0,14.800000190734863,1,-6.5,1.57542003E9
Raw,178750388,0,,,-9223372036854775808,,,,,0,15,0.0,47,275953932182562,38,21.200000762939453,18157.783203125,0.38103944063186646,0,0.0,0.0,1.57542003E9,,,,0,10.699999809265137,1,-6.5,1.57542003E9
NMEA,$GPGGA,043856.000,,,,,0,,,,,,,,*74,1600231135000
NMEA,$GPGLL,0120.9337,N,10342.5378,E,043856.000,V,N*4D,1600231135000
NMEA,$GPVTG,0.0,T,,M,0.0,N,0.0,K,N*02,1600231135000
NMEA,$GPGSV,1,1,03,05,23,010,18,12,37,228,24,15,71,219,21*44,1600231135000
NMEA,$GPRMC,043856.000,V,,,,,,,160920,,,N*4D,1600231135000
NMEA,$PSAMCLK,2123,27595400,0,9671035,42798677,275954000*70,1600231135000
NMEA,$GPGGA,043856.000,,,,,0,,,,,,,,*74,1600231135000
NMEA,$GPGLL,0120.9337,N,10342.5378,E,043856.000,V,N*4D,1600231135000
NMEA,$GPVTG,0.0,T,,M,0.0,N,0.0,K,N*02,1600231135000
NMEA,$GPGSV,1,1,03,05,23,010,18,12,37,228,24,15,71,219,21*44,1600231135000
NMEA,$GPRMC,043856.000,V,,,,,,,160920,,,N*4D,1600231135000
NMEA,$PSAMCLK,2123,27595400,0,9671035,42798677,275954000*70,1600231135000
Raw,178751378,0,,,-9223372036854775808,,,,,0,12,0.0,47,275954925451839,30,23.799999237060547,18648.232421875,0.28293347358703613,0,0.0,0.0,1.57542003E9,,,,0,7.900000095367432,1,-7.800000190734863,1.57542003E9
Raw,178751378,0,,,-9223372036854775808,,,,,0,15,0.0,47,275954932183399,39,21.100000381469727,18156.083984375,0.3857875466346741,0,0.0,0.0,1.57542003E9,,,,0,9.899999618530273,1,-7.800000190734863,1.57542003E9
Raw,178751501,0,,,-9223372036854775808,,,,,0,12,0.0,47,275954925451839,30,23.700000762939453,18648.232421875,0.28596755862236023,0,0.0,0.0,1.57542003E9,,,,0,7.900000095367432,1,-7.800000190734863,1.57542003E9
Raw,178751502,0,,,-9223372036854775808,,,,,0,15,0.0,47,275954932183399,39,20.899999618530273,18156.083984375,0.3955540060997009,0,0.0,0.0,1.57542003E9,,,,0,9.899999618530273,1,-7.800000190734863,1.57542003E9
NMEA,$GPGGA,043857.000,,,,,0,,,,,,,,*75,1600231136000
NMEA,$GPGLL,0120.9337,N,10342.5378,E,043857.000,V,N*4C,1600231136000
NMEA,$GPVTG,0.0,T,,M,0.0,N,0.0,K,N*02,1600231136000
NMEA,$GPGSV,1,1,03,05,23,010,18,12,37,228,24,15,71,219,21*44,1600231136000
NMEA,$GPRMC,043857.000,V,,,,,,,160920,,,N*4C,1600231136000
NMEA,$PSAMCLK,2123,27595500,0,9671035,42860064,275955000*7C,1600231136000
NMEA,$GPGGA,043857.000,,,,,0,,,,,,,,*75,1600231136000
NMEA,$GPGLL,0120.9337,N,10342.5378,E,043857.000,V,N*4C,1600231136000
NMEA,$GPVTG,0.0,T,,M,0.0,N,0.0,K,N*02,1600231136000
NMEA,$GPGSV,1,1,03,05,23,010,18,12,37,228,24,15,71,219,21*44,1600231136000
NMEA,$GPRMC,043857.000,V,,,,,,,160920,,,N*4C,1600231136000
NMEA,$PSAMCLK,2123,27595500,0,9671035,42860064,275955000*7C,1600231136000
Raw,178752400,0,,,-9223372036854775808,,,,,0,12,0.0,47,275955925451059,31,23.5,18648.08203125,0.29218408465385437,0,0.0,0.0,1.57542003E9,,,,0,13.0,1,-7.800000190734863,1.57542003E9
Raw,178752430,0,,,-9223372036854775808,,,,,0,12,0.0,47,275955925451059,31,23.299999237060547,18648.08203125,0.2986055314540863,0,0.0,0.0,1.57542003E9,,,,0,13.0,1,-7.800000190734863,1.57542003E9
NMEA,$GPGGA,043858.000,,,,,0,,,,,,,,*7A,1600231137000
NMEA,$GPGLL,0120.9337,N,10342.5378,E,043858.000,V,N*43,1600231137000
NMEA,$GPVTG,0.0,T,,M,0.0,N,0.0,K,N*02,1600231137000
NMEA,$GPGSV,1,1,03,05,23,010,17,12,37,228,24,15,71,219,19*40,1600231137000
NMEA,$GPRMC,043858.000,V,,,,,,,160920,,,N*43,1600231137000
NMEA,$PSAMCLK,2123,27595600,0,9671035,42921451,275956000*7A,1600231137000
NMEA,$GPGGA,043858.000,,,,,0,,,,,,,,*7A,1600231137000
NMEA,$GPGLL,0120.9337,N,10342.5378,E,043858.000,V,N*43,1600231137000
NMEA,$GPVTG,0.0,T,,M,0.0,N,0.0,K,N*02,1600231137000
NMEA,$GPGSV,1,1,03,05,23,010,15,12,37,228,23,15,71,219,18*44,1600231137000
NMEA,$GPRMC,043858.000,V,,,,,,,160920,,,N*43,1600231137000
NMEA,$PSAMCLK,2123,27595600,0,9671035,42921451,275956000*7A,1600231137000
NMEA,$GPGGA,043859.000,,,,,0,,,,,,,,*7B,1600231138000
Raw,178753440,0,,,-9223372036854775808,,,,,0,12,0.0,47,275956925450262,32,23.100000381469727,18646.908203125,0.3052409589290619,0,0.0,0.0,1.57542003E9,,,,0,7.699999809265137,1,-7.800000190734863,1.57542003E9
NMEA,$GPGLL,0120.9337,N,10342.5378,E,043859.000,V,N*42,1600231138000
Raw,178753454,0,,,-9223372036854775808,,,,,0,12,0.0,47,275956925450262,33,22.899999618530273,18646.908203125,0.3121001422405243,0,0.0,0.0,1.57542003E9,,,,0,7.699999809265137,1,-7.800000190734863,1.57542003E9
NMEA,$GPVTG,0.0,T,,M,0.0,N,0.0,K,N*02,1600231138000
NMEA,$GPGSV,1,1,03,05,23,010,14,12,37,228,23,15,71,219,16*4B,1600231138000
NMEA,$GPRMC,043859.000,V,,,,,,,160920,,,N*42,1600231138000
NMEA,$PSAMCLK,2123,27595700,0,9671035,42982838,275957000*70,1600231138000
NMEA,$GPGGA,043859.000,,,,,0,,,,,,,,*7B,1600231138000
NMEA,$GPGLL,0120.9337,N,10342.5378,E,043859.000,V,N*42,1600231138000
NMEA,$GPVTG,0.0,T,,M,0.0,N,0.0,K,N*02,1600231138000
NMEA,$GPGSV,1,1,03,05,23,010,13,12,37,228,23,15,71,219,15*4F,1600231138000
NMEA,$GPRMC,043859.000,V,,,,,,,160920,,,N*42,1600231138000
NMEA,$PSAMCLK,2123,27595700,0,9671035,42982838,275957000*70,1600231138000
Nav,12,257,0,-1,3,96,-33,-93,60,121,-43,-62,21,-42,-78,-60,86,-26,103,60,-87,80,115,17,-83,-120,70,81,30,35,75,65,45,68,-28,102,-5,-35,118,-81,30,-99,-69,-115,83
Nav,12,257,0,-1,3,96,-33,-93,60,121,-43,-62,21,-42,-78,-60,86,-26,103,60,-87,80,115,17,-83,-120,70,81,30,35,75,65,45,68,-28,102,-5,-35,118,-81,30,-99,-69,-115,83
Raw,178754380,0,,,-9223372036854775808,,,,,0,12,0.0,47,275957925449460,33,22.700000762939453,18645.076171875,0.319193035364151,0,0.0,0.0,1.57542003E9,,,,0,9.300000190734863,1,-7.800000190734863,1.57542003E9
Raw,178754437,0,,,-9223372036854775808,,,,,0,12,0.0,47,275957925449460,34,22.5,18645.076171875,0.3265306055545807,0,0.0,0.0,1.57542003E9,,,,0,9.300000190734863,1,-7.800000190734863,1.57542003E9
NMEA,$GPGGA,043900.000,,,,,0,,,,,,,,*76,1600231139000
NMEA,$GPGLL,0120.9337,N,10342.5378,E,043900.000,V,N*4F,1600231139000
NMEA,$GPVTG,0.0,T,,M,0.0,N,0.0,K,N*02,1600231139000
NMEA,$GPGSV,1,1,03,05,23,010,13,12,37,227,23,15,71,219,14*41,1600231139000
NMEA,$GPRMC,043900.000,V,,,,,,,160920,,,N*4F,1600231139000
NMEA,$PSAMCLK,2123,27595800,0,9671035,43044225,275958000*74,1600231139000
NMEA,$GPGGA,043900.000,,,,,0,,,,,,,,*76,1600231139000
NMEA,$GPGLL,0120.9337,N,10342.5378,E,043900.000,V,N*4F,1600231139000
NMEA,$GPVTG,0.0,T,,M,0.0,N,0.0,K,N*02,1600231139000
NMEA,$GPGSV,1,1,02,12,37,227,23,15,71,219,13*70,1600231139000
NMEA,$GPRMC,043900.000,V,,,,,,,160920,,,N*4F,1600231139000
NMEA,$PSAMCLK,2123,27595800,0,9671035,43044225,275958000*74,1600231139000
Raw,178755374,0,,,-9223372036854775808,,,,,0,12,0.0,47,275958925448585,34,22.299999237060547,18643.166015625,0.3341241180896759,0,0.0,0.0,1.57542003E9,,,,0,14.699999809265137,1,-7.800000190734863,1.57542003E9
Raw,178755388,0,,,-9223372036854775808,,,,,0,12,0.0,47,275958925448585,35,22.200000762939453,18643.166015625,0.33802053332328796,0,0.0,0.0,1.57542003E9,,,,0,14.699999809265137,1,-7.800000190734863,1.57542003E9
NMEA,$GPGGA,043901.000,,,,,0,,,,,,,,*77,1600231140000
NMEA,$GPGLL,0120.9337,N,10342.5378,E,043901.000,V,N*4E,1600231140000
NMEA,$GPVTG,0.0,T,,M,0.0,N,0.0,K,N*02,1600231140000
NMEA,$GPGSV,1,1,02,12,37,227,22,15,72,220,18*73,1600231140000
NMEA,$GPRMC,043901.000,V,,,,,,,160920,,,N*4E,1600231140000
NMEA,$PSAMCLK,2123,27595900,0,9671035,43105613,275959000*71,1600231140000
NMEA,$GPGGA,043901.000,,,,,0,,,,,,,,*77,1600231140000
NMEA,$GPGLL,0120.9337,N,10342.5378,E,043901.000,V,N*4E,1600231140000
NMEA,$GPVTG,0.0,T,,M,0.0,N,0.0,K,N*02,1600231140000
NMEA,$GPGSV,1,1,02,12,37,227,22,15,72,220,18*73,1600231140000
NMEA,$GPRMC,043901.000,V,,,,,,,160920,,,N*4E,1600231140000
NMEA,$PSAMCLK,2123,27595900,0,9671035,43105613,275959000*71,1600231140000
NMEA,$GPGGA,043902.000,,,,,0,,,,,,,,*74,1600231141000
Raw,178756485,0,,,-9223372036854775808,,,,,0,12,0.0,47,275959925447838,35,22.0,18641.978515625,0.34602075815200806,0,0.0,0.0,1.57542003E9,,,,0,13.899999618530273,1,-7.800000190734863,1.57542003E9
NMEA,$GPGLL,0120.9337,N,10342.5378,E,043902.000,V,N*4D,1600231141000
NMEA,$GPVTG,0.0,T,,M,0.0,N,0.0,K,N*02,1600231141000
NMEA,$GPGSV,1,1,02,12,37,227,22,15,72,220,18*73,1600231141000
Raw,178756520,0,,,-9223372036854775808,,,,,0,12,0.0,47,275959925447838,36,21.799999237060547,18641.978515625,0.35430842638015747,0,0.0,0.0,1.57542003E9,,,,0,13.899999618530273,1,-7.800000190734863,1.57542003E9
NMEA,$GPRMC,043902.000,V,,,,,,,160920,,,N*4D,1600231141000
NMEA,$PSAMCLK,2123,27596000,0,9671035,43167000,275960000*71,1600231141000
NMEA,$GPGGA,043902.000,,,,,0,,,,,,,,*74,1600231141000
NMEA,$GPGLL,0120.9337,N,10342.5378,E,043902.000,V,N*4D,1600231141000
NMEA,$GPVTG,0.0,T,,M,0.0,N,0.0,K,N*02,1600231141000
NMEA,$GPGSV,1,1,02,12,37,227,22,15,72,220,18*73,1600231141000
NMEA,$GPRMC,043902.000,V,,,,,,,160920,,,N*4D,1600231141000
NMEA,$PSAMCLK,2123,27596000,0,9671035,43167000,275960000*71,1600231141000
Raw,178757397,0,,,-9223372036854775808,,,,,0,12,0.0,47,275960925447056,37,21.600000381469727,18640.65625,0.3628973662853241,0,0.0,0.0,1.57542003E9,,,,0,12.0,1,-7.800000190734863,1.57542003E9
Raw,178757399,0,,,-9223372036854775808,,,,,0,12,0.0,47,275960925447056,37,21.5,18640.65625,0.36730945110321045,0,0.0,0.0,1.57542003E9,,,,0,12.0,1,-7.800000190734863,1.57542003E9
NMEA,$GPGGA,043903.000,,,,,0,,,,,,,,*75,1600231142000
NMEA,$GPGLL,0120.9337,N,10342.5378,E,043903.000,V,N*4C,1600231142000
NMEA,$GPVTG,0.0,T,,M,0.0,N,0.0,K,N*02,1600231142000
NMEA,$GPGSV,1,1,02,12,37,227,22,15,72,220,18*73,1600231142000
NMEA,$GPRMC,043903.000,V,,,,,,,160920,,,N*4C,1600231142000
NMEA,$PSAMCLK,2123,27596100,0,9671035,43228387,275961000*75,1600231142000
NMEA,$GPGGA,043903.000,,,,,0,,,,,,,,*75,1600231142000
NMEA,$GPGLL,0120.9337,N,10342.5378,E,043903.000,V,N*4C,1600231142000
NMEA,$GPVTG,0.0,T,,M,0.0,N,0.0,K,N*02,1600231142000
NMEA,$GPGSV,1,1,02,12,37,227,22,15,72,220,18*73,1600231142000
NMEA,$GPRMC,043903.000,V,,,,,,,160920,,,N*4C,1600231142000
NMEA,$PSAMCLK,2123,27596100,0,9671035,43228387,275961000*75,1600231142000
NMEA,$GPGGA,043904.000,,,,,0,,,,,,,,*72,1600231143000
NMEA,$GPGLL,0120.9337,N,10342.5378,E,043904.000,V,N*4B,1600231143000
NMEA,$GPVTG,0.0,T,,M,0.0,N,0.0,K,N*02,1600231143000
NMEA,$GPGSV,1,1,02,12,37,227,20,15,72,220,18*71,1600231143000
NMEA,$GPRMC,043904.000,V,,,,,,,160920,,,N*4B,1600231143000
NMEA,$PSAMCLK,2123,27596200,0,9671035,43289774,275962000*76,1600231143000
NMEA,$GPGGA,043904.000,,,,,0,,,,,,,,*72,1600231143000
NMEA,$GPGLL,0120.9337,N,10342.5378,E,043904.000,V,N*4B,1600231143000
NMEA,$GPVTG,0.0,T,,M,0.0,N,0.0,K,N*02,1600231143000
NMEA,$GPGSV,1,1,02,12,37,227,19,15,72,220,18*7B,1600231143000
NMEA,$GPRMC,043904.000,V,,,,,,,160920,,,N*4B,1600231143000
NMEA,$PSAMCLK,2123,27596200,0,9671035,43289774,275962000*76,1600231143000
NMEA,$GPGGA,043905.000,,,,,0,,,,,,,,*73,1600231144000
NMEA,$GPGLL,0120.9337,N,10342.5378,E,043905.000,V,N*4A,1600231144000
NMEA,$GPVTG,0.0,T,,M,0.0,N,0.0,K,N*02,1600231144000
NMEA,$GPGSV,1,1,02,12,37,227,17,15,72,220,18*75,1600231144000
NMEA,$GPRMC,043905.000,V,,,,,,,160920,,,N*4A,1600231144000
NMEA,$PSAMCLK,2123,27596300,0,9671035,43351161,275963000*70,1600231144000
NMEA,$GPGGA,043905.000,,,,,0,,,,,,,,*73,1600231144000
NMEA,$GPGLL,0120.9337,N,10342.5378,E,043905.000,V,N*4A,1600231144000
NMEA,$GPVTG,0.0,T,,M,0.0,N,0.0,K,N*02,1600231144000
NMEA,$GPGSV,1,1,02,12,37,227,16,15,72,220,18*74,1600231144000
NMEA,$GPRMC,043905.000,V,,,,,,,160920,,,N*4A,1600231144000
NMEA,$PSAMCLK,2123,27596300,0,9671035,43351161,275963000*70,1600231144000
NMEA,$GPGGA,043906.000,,,,,0,,,,,,,,*70,1600231144000
NMEA,$GPGLL,0120.9337,N,10342.5378,E,043906.000,V,N*49,1600231144000
NMEA,$GPVTG,0.0,T,,M,0.0,N,0.0,K,N*02,1600231144000
NMEA,$GPGSV,1,1,03,12,37,227,14,15,72,220,16,25,23,265,20*4C,1600231144000
NMEA,$GPRMC,043906.000,V,,,,,,,160920,,,N*49,1600231144000
NMEA,$PSAMCLK,2123,27596400,0,9671035,43412548,275964000*7F,1600231144000
NMEA,$GPGGA,043906.000,,,,,0,,,,,,,,*70,1600231144000
NMEA,$GPGLL,0120.9337,N,10342.5378,E,043906.000,V,N*49,1600231144000
NMEA,$GPVTG,0.0,T,,M,0.0,N,0.0,K,N*02,1600231144000
NMEA,$GPGSV,1,1,04,05,23,010,21,12,37,227,13,15,72,220,15,25,23,265,20*79,1600231144000
NMEA,$GPRMC,043906.000,V,,,,,,,160920,,,N*49,1600231144000
NMEA,$PSAMCLK,2123,27596400,0,9671035,43412548,275964000*7F,1600231144000
Nav,5,257,0,4,4,1,1,1,1,1,1,1,1,1,1,1,1,1,1,1,1,1,1,1,1,1,1,1,1,1,1,1,1,1,1,1,1,1,0,0,0,-111,-50,79,113
Nav,5,257,0,4,4,1,1,1,1,1,1,1,1,1,1,1,1,1,1,1,1,1,1,1,1,1,1,1,1,1,1,1,1,1,1,1,1,1,0,0,0,-111,-50,79,113
NMEA,$GPGGA,043906.000,,,,,0,,,,,,,,*70,1600231145000
NMEA,$GPGLL,0120.9337,N,10342.5378,E,043906.000,V,N*49,1600231145000
NMEA,$GPVTG,0.0,T,,M,0.0,N,0.0,K,N*02,1600231145000
NMEA,$GPGSV,1,1,04,05,23,010,21,12,37,227,13,15,72,220,14,25,23,265,19*72,1600231145000
NMEA,$GPRMC,043906.000,V,,,,,,,160920,,,N*49,1600231145000
NMEA,$PSAMCLK,2123,27596400,0,9671035,43412548,275964000*7F,1600231145000
NMEA,$GPGGA,043906.000,,,,,0,,,,,,,,*70,1600231145000
NMEA,$GPGLL,0120.9337,N,10342.5378,E,043906.000,V,N*49,1600231145000
NMEA,$GPVTG,0.0,T,,M,0.0,N,0.0,K,N*02,1600231145000
NMEA,$GPGSV,1,1,04,05,23,010,21,12,37,227,12,15,72,220,13,25,23,265,17*7A,1600231145000
NMEA,$GPRMC,043906.000,V,,,,,,,160920,,,N*49,1600231145000
NMEA,$PSAMCLK,2123,27596400,0,9671035,43412548,275964000*7F,1600231145000
NMEA,$GPGGA,043907.000,,,,,0,,,,,,,,*71,1600231145000
NMEA,$GPGLL,0120.9337,N,10342.5378,E,043907.000,V,N*48,1600231145000
NMEA,$GPVTG,0.0,T,,M,0.0,N,0.0,K,N*02,1600231145000
NMEA,$GPGSV,1,1,03,05,23,010,21,15,72,220,13,25,23,265,16*4F,1600231145000
NMEA,$GPRMC,043907.000,V,,,,,,,160920,,,N*48,1600231145000
NMEA,$PSAMCLK,2123,27596500,0,9671035,43473935,275965000*7E,1600231145000
NMEA,$GPGGA,043907.000,,,,,0,,,,,,,,*71,1600231145000
NMEA,$GPGLL,0120.9337,N,10342.5378,E,043907.000,V,N*48,1600231145000
NMEA,$GPVTG,0.0,T,,M,0.0,N,0.0,K,N*02,1600231145000
NMEA,$GPGSV,1,1,04,05,23,010,21,13,66,068,20,15,72,220,12,25,23,265,14*75,1600231145000
NMEA,$GPRMC,043907.000,V,,,,,,,160920,,,N*48,1600231145000
NMEA,$PSAMCLK,2123,27596500,0,9671035,43473935,275965000*7E,1600231145000
NMEA,$GPGGA,043907.000,,,,,0,,,,,,,,*71,1600231146000
NMEA,$GPGLL,0120.9337,N,10342.5378,E,043907.000,V,N*48,1600231146000
NMEA,$GPVTG,0.0,T,,M,0.0,N,0.0,K,N*02,1600231146000
NMEA,$GPGSV,1,1,03,05,23,010,21,13,66,068,19,25,23,265,13*4D,1600231146000
NMEA,$GPRMC,043907.000,V,,,,,,,160920,,,N*48,1600231146000
NMEA,$PSAMCLK,2123,27596500,0,9671035,43473935,275965000*7E,1600231146000
NMEA,$GPGGA,043907.000,,,,,0,,,,,,,,*71,1600231146000
NMEA,$GPGLL,0120.9337,N,10342.5378,E,043907.000,V,N*48,1600231146000
NMEA,$GPVTG,0.0,T,,M,0.0,N,0.0,K,N*02,1600231146000
NMEA,$GPGSV,1,1,03,05,23,010,21,13,66,068,17,25,23,265,13*43,1600231146000
NMEA,$GPRMC,043907.000,V,,,,,,,160920,,,N*48,1600231146000
NMEA,$PSAMCLK,2123,27596500,0,9671035,43473935,275965000*7E,1600231146000
NMEA,$GPGGA,043908.000,,,,,0,,,,,,,,*7E,1600231147000
NMEA,$GPGLL,0120.9337,N,10342.5378,E,043908.000,V,N*47,1600231147000
NMEA,$GPVTG,0.0,T,,M,0.0,N,0.0,K,N*02,1600231147000
NMEA,$GPGSV,1,1,03,05,23,010,19,13,66,068,16,25,23,265,12*48,1600231147000
NMEA,$GPRMC,043908.000,V,,,,,,,160920,,,N*47,1600231147000
NMEA,$PSAMCLK,2123,27596600,0,9671035,43535322,275966000*71,1600231147000
NMEA,$GPGGA,043908.000,,,,,0,,,,,,,,*7E,1600231147000
NMEA,$GPGLL,0120.9337,N,10342.5378,E,043908.000,V,N*47,1600231147000
NMEA,$GPVTG,0.0,T,,M,0.0,N,0.0,K,N*02,1600231147000
NMEA,$GPGSV,1,1,02,05,23,010,18,13,66,068,14*7E,1600231147000
NMEA,$GPRMC,043908.000,V,,,,,,,160920,,,N*47,1600231147000
NMEA,$PSAMCLK,2123,27596600,0,9671035,43535322,275966000*71,1600231147000
NMEA,$GPGGA,043909.000,,,,,0,,,,,,,,*7F,1600231147000
NMEA,$GPGLL,0120.9337,N,10342.5378,E,043909.000,V,N*46,1600231147000
NMEA,$GPVTG,0.0,T,,M,0.0,N,0.0,K,N*02,1600231147000
NMEA,$GPGSV,1,1,02,05,23,010,21,13,66,068,13*73,1600231147000
NMEA,$GPRMC,043909.000,V,,,,,,,160920,,,N*46,1600231147000
NMEA,$PSAMCLK,2123,27596700,0,9671035,43596709,275967000*75,1600231147000
NMEA,$GPGGA,043909.000,,,,,0,,,,,,,,*7F,1600231147000
NMEA,$GPGLL,0120.9337,N,10342.5378,E,043909.000,V,N*46,1600231147000
NMEA,$GPVTG,0.0,T,,M,0.0,N,0.0,K,N*02,1600231147000
NMEA,$GPGSV,1,1,02,05,23,010,21,13,66,068,13*73,1600231147000
NMEA,$GPRMC,043909.000,V,,,,,,,160920,,,N*46,1600231147000
NMEA,$PSAMCLK,2123,27596700,0,9671035,43596709,275967000*75,1600231147000
NMEA,$GPGGA,043909.000,,,,,0,,,,,,,,*7F,1600231147000
NMEA,$GPGLL,0120.9337,N,10342.5378,E,043909.000,V,N*46,1600231147000
NMEA,$GPVTG,0.0,T,,M,0.0,N,0.0,K,N*02,1600231147000
NMEA,$GPGSV,1,1,03,05,23,010,21,13,66,068,12,15,72,220,20*40,1600231147000
NMEA,$GPRMC,043909.000,V,,,,,,,160920,,,N*46,1600231147000
NMEA,$PSAMCLK,2123,27596700,0,9671035,43596709,275967000*75,1600231147000
NMEA,$GPGGA,043909.000,,,,,0,,,,,,,,*7F,1600231148000
NMEA,$GPGLL,0120.9337,N,10342.5378,E,043909.000,V,N*46,1600231148000
NMEA,$GPVTG,0.0,T,,M,0.0,N,0.0,K,N*02,1600231148000
NMEA,$GPGSV,1,1,02,05,23,010,21,15,72,220,20*7E,1600231148000
NMEA,$GPRMC,043909.000,V,,,,,,,160920,,,N*46,1600231148000
NMEA,$PSAMCLK,2123,27596700,0,9671035,43596709,275967000*75,1600231148000
NMEA,$GPGGA,043909.889,,,,,0,,,,,,,,*76,1600231149000
NMEA,$GPGLL,0120.9337,N,10342.5378,E,043909.889,V,N*4F,1600231149000
NMEA,$GPVTG,0.0,T,,M,0.0,N,0.0,K,N*02,1600231149000
NMEA,$GPGSV,1,1,02,05,23,010,21,15,72,220,20*7E,1600231149000
NMEA,$GPRMC,043909.889,V,,,,,,,160920,,,N*4F,1600231149000
NMEA,$PSAMCLK,2123,27596789,0,9671035,43651284,275967889*75,1600231149000
NMEA,$GPGGA,043909.889,,,,,0,,,,,,,,*76,1600231149000
NMEA,$GPGLL,0120.9337,N,10342.5378,E,043909.889,V,N*4F,1600231149000
NMEA,$GPVTG,0.0,T,,M,0.0,N,0.0,K,N*02,1600231149000
NMEA,$GPGSV,1,1,02,05,23,010,21,15,72,220,20*7E,1600231149000
NMEA,$GPRMC,043909.889,V,,,,,,,160920,,,N*4F,1600231149000
NMEA,$PSAMCLK,2123,27596789,0,9671035,43651284,275967889*75,1600231149000
NMEA,$GPGGA,043910.000,,,,,0,,,,,,,,*77,1600231149000
NMEA,$GPGLL,0120.9337,N,10342.5378,E,043910.000,V,N*4E,1600231149000
NMEA,$GPVTG,0.0,T,,M,0.0,N,0.0,K,N*02,1600231149000
NMEA,$GPGSV,1,1,02,05,23,010,21,15,72,220,19*74,1600231149000
NMEA,$GPRMC,043910.000,V,,,,,,,160920,,,N*4E,1600231149000
NMEA,$PSAMCLK,2123,27596800,0,9671035,43658096,275968000*75,1600231149000
NMEA,$GPGGA,043910.000,,,,,0,,,,,,,,*77,1600231149000
NMEA,$GPGLL,0120.9337,N,10342.5378,E,043910.000,V,N*4E,1600231149000
NMEA,$GPVTG,0.0,T,,M,0.0,N,0.0,K,N*02,1600231149000
NMEA,$GPGSV,1,1,02,05,23,010,20,15,72,220,19*75,1600231149000
NMEA,$GPRMC,043910.000,V,,,,,,,160920,,,N*4E,1600231149000
NMEA,$PSAMCLK,2123,27596800,0,9671035,43658096,275968000*75,1600231149000
NMEA,$GPGGA,043911.000,,,,,0,,,,,,,,*76,1600231149000
NMEA,$GPGLL,0120.9337,N,10342.5378,E,043911.000,V,N*4F,1600231149000
NMEA,$GPVTG,0.0,T,,M,0.0,N,0.0,K,N*02,1600231149000
NMEA,$GPGSV,1,1,03,02,33,047,22,05,23,010,20,15,72,220,19*45,1600231149000
NMEA,$GPRMC,043911.000,V,,,,,,,160920,,,N*4F,1600231149000
NMEA,$PSAMCLK,2123,27596900,0,9671035,43719483,275969000*71,1600231149000
NMEA,$GPGGA,043911.000,,,,,0,,,,,,,,*76,1600231150000
NMEA,$GPGLL,0120.9337,N,10342.5378,E,043911.000,V,N*4F,1600231150000
NMEA,$GPVTG,0.0,T,,M,0.0,N,0.0,K,N*02,1600231150000
NMEA,$GPGSV,1,1,03,02,33,047,22,05,23,010,20,15,72,220,18*44,1600231150000
NMEA,$GPRMC,043911.000,V,,,,,,,160920,,,N*4F,1600231150000
NMEA,$PSAMCLK,2123,27596900,0,9671035,43719483,275969000*71,1600231150000
NMEA,$GPGGA,043911.000,,,,,0,,,,,,,,*76,1600231150000
NMEA,$GPGLL,0120.9337,N,10342.5378,E,043911.000,V,N*4F,1600231150000
NMEA,$GPVTG,0.0,T,,M,0.0,N,0.0,K,N*02,1600231150000
NMEA,$GPGSV,1,1,03,02,33,047,21,05,23,010,20,15,72,220,17*48,1600231150000
NMEA,$GPRMC,043911.000,V,,,,,,,160920,,,N*4F,1600231150000
NMEA,$PSAMCLK,2123,27596900,0,9671035,43719483,275969000*71,1600231150000
NMEA,$GPGGA,043911.000,,,,,0,,,,,,,,*76,1600231150000
NMEA,$GPGLL,0120.9337,N,10342.5378,E,043911.000,V,N*4F,1600231150000
NMEA,$GPVTG,0.0,T,,M,0.0,N,0.0,K,N*02,1600231150000
NMEA,$GPGSV,1,1,03,02,33,047,19,05,23,010,20,15,72,220,15*41,1600231150000
NMEA,$GPRMC,043911.000,V,,,,,,,160920,,,N*4F,1600231150000
NMEA,$PSAMCLK,2123,27596900,0,9671035,43719483,275969000*71,1600231150000
Nav,5,257,0,4,5,1,1,1,1,1,1,1,1,1,1,1,1,1,1,1,1,-40,6,100,0,1,64,-8,29,127,-128,-2,87,-74,15,14,-3,117,14,88,-125,-77,71,-25,103
Nav,5,257,0,4,5,1,1,1,1,1,1,1,1,1,1,1,1,1,1,1,1,-40,6,100,0,1,64,-8,29,127,-128,-2,87,-74,15,14,-3,117,14,88,-125,-77,71,-25,103
NMEA,$GPGGA,043912.000,,,,,0,,,,,,,,*75,1600231151000
NMEA,$GPGLL,0120.9337,N,10342.5378,E,043912.000,V,N*4C,1600231151000
NMEA,$GPVTG,0.0,T,,M,0.0,N,0.0,K,N*02,1600231151000
NMEA,$GPGSV,1,1,03,02,33,047,18,05,23,010,20,15,72,220,14*41,1600231151000
NMEA,$GPRMC,043912.000,V,,,,,,,160920,,,N*4C,1600231151000
NMEA,$PSAMCLK,2123,27597000,0,9671035,43780870,275970000*71,1600231151000
NMEA,$GPGGA,043912.000,,,,,0,,,,,,,,*75,1600231151000
NMEA,$GPGLL,0120.9337,N,10342.5378,E,043912.000,V,N*4C,1600231151000
NMEA,$GPVTG,0.0,T,,M,0.0,N,0.0,K,N*02,1600231151000
NMEA,$GPGSV,1,1,03,02,33,047,16,05,23,010,20,15,72,220,13*48,1600231151000
NMEA,$GPRMC,043912.000,V,,,,,,,160920,,,N*4C,1600231151000
NMEA,$PSAMCLK,2123,27597000,0,9671035,43780870,275970000*71,1600231151000
NMEA,$GPGGA,043913.000,,,,,0,,,,,,,,*74,1600231151000
NMEA,$GPGLL,0120.9337,N,10342.5378,E,043913.000,V,N*4D,1600231151000
NMEA,$GPVTG,0.0,T,,M,0.0,N,0.0,K,N*02,1600231151000
NMEA,$GPGSV,1,1,03,02,33,047,15,05,23,010,19,15,72,220,19*4B,1600231151000
NMEA,$GPRMC,043913.000,V,,,,,,,160920,,,N*4D,1600231151000
NMEA,$PSAMCLK,2123,27597100,0,9671035,43842257,275971000*7F,1600231151000
NMEA,$GPGGA,043913.000,,,,,0,,,,,,,,*74,1600231151000
NMEA,$GPGLL,0120.9337,N,10342.5378,E,043913.000,V,N*4D,1600231151000
NMEA,$GPVTG,0.0,T,,M,0.0,N,0.0,K,N*02,1600231151000
NMEA,$GPGSV,1,1,03,02,33,047,14,05,23,010,17,15,72,220,19*44,1600231151000
NMEA,$GPRMC,043913.000,V,,,,,,,160920,,,N*4D,1600231151000
NMEA,$PSAMCLK,2123,27597100,0,9671035,43842257,275971000*7F,1600231151000
NMEA,$GPGGA,043913.000,,,,,0,,,,,,,,*74,1600231152000
NMEA,$GPGLL,0120.9337,N,10342.5378,E,043913.000,V,N*4D,1600231152000
NMEA,$GPVTG,0.0,T,,M,0.0,N,0.0,K,N*02,1600231152000
NMEA,$GPGSV,1,1,03,02,33,047,13,05,23,010,16,15,72,220,19*42,1600231152000
NMEA,$GPRMC,043913.000,V,,,,,,,160920,,,N*4D,1600231152000
NMEA,$PSAMCLK,2123,27597100,0,9671035,43842257,275971000*7F,1600231152000
NMEA,$GPGGA,043913.000,,,,,0,,,,,,,,*74,1600231152000
NMEA,$GPGLL,0120.9337,N,10342.5378,E,043913.000,V,N*4D,1600231152000
NMEA,$GPVTG,0.0,T,,M,0.0,N,0.0,K,N*02,1600231152000
NMEA,$GPGSV,1,1,03,02,33,047,12,05,23,010,14,15,72,220,19*41,1600231152000
NMEA,$GPRMC,043913.000,V,,,,,,,160920,,,N*4D,1600231152000
NMEA,$PSAMCLK,2123,27597100,0,9671035,43842257,275971000*7F,1600231152000
NMEA,$GPGGA,043914.000,,,,,0,,,,,,,,*73,1600231152000
NMEA,$GPGLL,0120.9337,N,10342.5378,E,043914.000,V,N*4A,1600231152000
NMEA,$GPVTG,0.0,T,,M,0.0,N,0.0,K,N*02,1600231152000
NMEA,$GPGSV,1,1,02,05,23,010,14,15,72,220,19*72,1600231152000
NMEA,$GPRMC,043914.000,V,,,,,,,160920,,,N*4A,1600231152000
NMEA,$PSAMCLK,2123,27597200,0,9671035,43903644,275972000*7D,1600231152000
NMEA,$GPGGA,043914.000,,,,,0,,,,,,,,*73,1600231152000
NMEA,$GPGLL,0120.9337,N,10342.5378,E,043914.000,V,N*4A,1600231152000
NMEA,$GPVTG,0.0,T,,M,0.0,N,0.0,K,N*02,1600231152000
NMEA,$GPGSV,1,1,03,05,23,010,13,13,66,068,21,15,72,220,19*4B,1600231152000
NMEA,$GPRMC,043914.000,V,,,,,,,160920,,,N*4A,1600231152000
NMEA,$PSAMCLK,2123,27597200,0,9671035,43903644,275972000*7D,1600231152000
NMEA,$GPGGA,043914.000,,,,,0,,,,,,,,*73,1600231153000
NMEA,$GPGLL,0120.9337,N,10342.5378,E,043914.000,V,N*4A,1600231153000
NMEA,$GPVTG,0.0,T,,M,0.0,N,0.0,K,N*02,1600231153000
NMEA,$GPGSV,1,1,03,05,23,010,12,13,66,068,20,15,72,220,18*4A,1600231153000
NMEA,$GPRMC,043914.000,V,,,,,,,160920,,,N*4A,1600231153000
NMEA,$PSAMCLK,2123,27597200,0,9671035,43903644,275972000*7D,1600231153000
NMEA,$GPGGA,043914.000,,,,,0,,,,,,,,*73,1600231153000
NMEA,$GPGLL,0120.9337,N,10342.5378,E,043914.000,V,N*4A,1600231153000
NMEA,$GPVTG,0.0,T,,M,0.0,N,0.0,K,N*02,1600231153000
NMEA,$GPGSV,1,1,02,13,66,068,18,15,72,220,18*76,1600231153000
NMEA,$GPRMC,043914.000,V,,,,,,,160920,,,N*4A,1600231153000
NMEA,$PSAMCLK,2123,27597200,0,9671035,43903644,275972000*7D,1600231153000
NMEA,$GPGGA,043915.000,,,,,0,,,,,,,,*72,1600231154000
NMEA,$GPGLL,0120.9337,N,10342.5378,E,043915.000,V,N*4B,1600231154000
NMEA,$GPVTG,0.0,T,,M,0.0,N,0.0,K,N*02,1600231154000
NMEA,$GPGSV,1,1,03,12,37,227,23,13,66,068,17,15,72,220,18*49,1600231154000
NMEA,$GPRMC,043915.000,V,,,,,,,160920,,,N*4B,1600231154000
NMEA,$PSAMCLK,2123,27597300,0,9671035,43965031,275973000*79,1600231154000
NMEA,$GPGGA,043915.000,,,,,0,,,,,,,,*72,1600231154000
NMEA,$GPGLL,0120.9337,N,10342.5378,E,043915.000,V,N*4B,1600231154000
NMEA,$GPVTG,0.0,T,,M,0.0,N,0.0,K,N*02,1600231154000
NMEA,$GPGSV,1,1,03,12,37,227,23,13,66,068,15,15,72,220,18*4B,1600231154000
NMEA,$GPRMC,043915.000,V,,,,,,,160920,,,N*4B,1600231154000
NMEA,$PSAMCLK,2123,27597300,0,9671035,43965031,275973000*79,1600231154000
NMEA,$GPGGA,043915.000,,,,,0,,,,,,,,*72,1600231154000
NMEA,$GPGLL,0120.9337,N,10342.5378,E,043915.000,V,N*4B,1600231154000
NMEA,$GPVTG,0.0,T,,M,0.0,N,0.0,K,N*02,1600231154000
NMEA,$GPGSV,1,1,03,12,37,227,22,13,66,068,14,15,72,220,18*4B,1600231154000
NMEA,$GPRMC,043915.000,V,,,,,,,160920,,,N*4B,1600231154000
NMEA,$PSAMCLK,2123,27597300,0,9671035,43965031,275973000*79,1600231154000
NMEA,$GPGGA,043915.000,,,,,0,,,,,,,,*72,1600231154000
NMEA,$GPGLL,0120.9337,N,10342.5378,E,043915.000,V,N*4B,1600231154000
NMEA,$GPVTG,0.0,T,,M,0.0,N,0.0,K,N*02,1600231154000
NMEA,$GPGSV,1,1,03,12,37,227,20,13,66,068,14,15,72,220,18*49,1600231154000
NMEA,$GPRMC,043915.000,V,,,,,,,160920,,,N*4B,1600231154000
NMEA,$PSAMCLK,2123,27597300,0,9671035,43965031,275973000*79,1600231154000
NMEA,$GPGGA,043916.000,,,,,0,,,,,,,,*71,1600231154000
NMEA,$GPGLL,0120.9337,N,10342.5378,E,043916.000,V,N*48,1600231154000
NMEA,$GPVTG,0.0,T,,M,0.0,N,0.0,K,N*02,1600231154000
NMEA,$GPGSV,1,1,03,12,37,227,19,13,66,068,23,15,72,220,18*47,1600231154000
NMEA,$GPRMC,043916.000,V,,,,,,,160920,,,N*48,1600231154000
NMEA,$PSAMCLK,2123,27597400,0,9671035,44026418,275974000*7F,1600231154000
NMEA,$GPGGA,043916.000,,,,,0,,,,,,,,*71,1600231154000
NMEA,$GPGLL,0120.9337,N,10342.5378,E,043916.000,V,N*48,1600231154000
NMEA,$GPVTG,0.0,T,,M,0.0,N,0.0,K,N*02,1600231154000
NMEA,$GPGSV,1,1,03,12,37,227,17,13,66,068,23,15,72,220,17*46,1600231154000
NMEA,$GPRMC,043916.000,V,,,,,,,160920,,,N*48,1600231154000
NMEA,$PSAMCLK,2123,27597400,0,9671035,44026418,275974000*7F,1600231154000
NMEA,$GPGGA,043916.000,,,,,0,,,,,,,,*71,1600231155000
NMEA,$GPGLL,0120.9337,N,10342.5378,E,043916.000,V,N*48,1600231155000
NMEA,$GPVTG,0.0,T,,M,0.0,N,0.0,K,N*02,1600231155000
NMEA,$GPGSV,1,1,03,12,37,227,16,13,66,068,22,15,72,220,16*47,1600231155000
NMEA,$GPRMC,043916.000,V,,,,,,,160920,,,N*48,1600231155000
NMEA,$PSAMCLK,2123,27597400,0,9671035,44026418,275974000*7F,1600231155000
NMEA,$GPGGA,043916.000,,,,,0,,,,,,,,*71,1600231155000
NMEA,$GPGLL,0120.9337,N,10342.5378,E,043916.000,V,N*48,1600231155000
NMEA,$GPVTG,0.0,T,,M,0.0,N,0.0,K,N*02,1600231155000
NMEA,$GPGSV,1,1,03,12,37,227,14,13,66,068,20,15,72,220,16*47,1600231155000
NMEA,$GPRMC,043916.000,V,,,,,,,160920,,,N*48,1600231155000
NMEA,$PSAMCLK,2123,27597400,0,9671035,44026418,275974000*7F,1600231155000
NMEA,$GPGGA,043917.000,,,,,0,,,,,,,,*70,1600231156000
NMEA,$GPGLL,0120.9337,N,10342.5378,E,043917.000,V,N*49,1600231156000
NMEA,$GPVTG,0.0,T,,M,0.0,N,0.0,K,N*02,1600231156000
NMEA,$GPGSV,1,1,03,12,37,227,13,13,66,068,19,15,72,220,14*48,1600231156000
NMEA,$GPRMC,043917.000,V,,,,,,,160920,,,N*49,1600231156000
NMEA,$PSAMCLK,2123,27597500,0,9671035,44087805,275975000*74,1600231156000
NMEA,$GPGGA,043917.000,,,,,0,,,,,,,,*70,1600231156000
NMEA,$GPGLL,0120.9337,N,10342.5378,E,043917.000,V,N*49,1600231156000
NMEA,$GPVTG,0.0,T,,M,0.0,N,0.0,K,N*02,1600231156000
NMEA,$GPGSV,1,1,03,12,37,227,13,13,66,068,17,15,72,220,14*46,1600231156000
NMEA,$GPRMC,043917.000,V,,,,,,,160920,,,N*49,1600231156000
NMEA,$PSAMCLK,2123,27597500,0,9671035,44087805,275975000*74,1600231156000
NMEA,$GPGGA,043918.000,,,,,0,,,,,,,,*7F,1600231157000
NMEA,$GPGLL,0120.9337,N,10342.5378,E,043918.000,V,N*46,1600231157000
NMEA,$GPVTG,0.0,T,,M,0.0,N,0.0,K,N*02,1600231157000
NMEA,$GPGSV,1,1,03,12,37,227,12,13,66,068,16,15,72,220,13*41,1600231157000
NMEA,$GPRMC,043918.000,V,,,,,,,160920,,,N*46,1600231157000
NMEA,$PSAMCLK,2123,27597600,0,9671035,44149192,275976000*70,1600231157000
NMEA,$GPGGA,043918.000,,,,,0,,,,,,,,*7F,1600231157000
NMEA,$GPGLL,0120.9337,N,10342.5378,E,043918.000,V,N*46,1600231157000
NMEA,$GPVTG,0.0,T,,M,0.0,N,0.0,K,N*02,1600231157000
NMEA,$GPGSV,1,1,02,13,66,068,14,15,72,220,12*70,1600231157000
NMEA,$GPRMC,043918.000,V,,,,,,,160920,,,N*46,1600231157000
NMEA,$PSAMCLK,2123,27597600,0,9671035,44149192,275976000*70,1600231157000
NMEA,$GPGGA,043919.000,,,,,0,,,,,,,,*7E,1600231157000
NMEA,$GPGLL,0120.9337,N,10342.5378,E,043919.000,V,N*47,1600231157000
NMEA,$GPVTG,0.0,T,,M,0.0,N,0.0,K,N*02,1600231157000
NMEA,$GPGSV,1,1,02,02,33,047,21,13,66,068,13*77,1600231157000
NMEA,$GPRMC,043919.000,V,,,,,,,160920,,,N*47,1600231157000
NMEA,$PSAMCLK,2123,27597700,0,9671035,44210579,275977000*7E,1600231157000
NMEA,$GPGGA,043919.000,,,,,0,,,,,,,,*7E,1600231157000
NMEA,$GPGLL,0120.9337,N,10342.5378,E,043919.000,V,N*47,1600231157000
NMEA,$GPVTG,0.0,T,,M,0.0,N,0.0,K,N*02,1600231157000
NMEA,$GPGSV,1,1,02,02,33,047,21,13,66,068,13*77,1600231157000
NMEA,$GPRMC,043919.000,V,,,,,,,160920,,,N*47,1600231157000
NMEA,$PSAMCLK,2123,27597700,0,9671035,44210579,275977000*7E,1600231157000
NMEA,$GPGGA,043919.000,,,,,0,,,,,,,,*7E,1600231157000
NMEA,$GPGLL,0120.9337,N,10342.5378,E,043919.000,V,N*47,1600231157000
NMEA,$GPVTG,0.0,T,,M,0.0,N,0.0,K,N*02,1600231157000
NMEA,$GPGSV,1,1,02,02,33,047,20,13,66,068,12*77,1600231157000
NMEA,$GPRMC,043919.000,V,,,,,,,160920,,,N*47,1600231157000
NMEA,$PSAMCLK,2123,27597700,0,9671035,44210579,275977000*7E,1600231157000
NMEA,$GPGGA,043919.000,,,,,0,,,,,,,,*7E,1600231157000
NMEA,$GPGLL,0120.9337,N,10342.5378,E,043919.000,V,N*47,1600231157000
NMEA,$GPVTG,0.0,T,,M,0.0,N,0.0,K,N*02,1600231157000
NMEA,$GPGSV,1,1,02,02,33,047,18,12,37,227,21*70,1600231157000
NMEA,$GPRMC,043919.000,V,,,,,,,160920,,,N*47,1600231157000
NMEA,$PSAMCLK,2123,27597700,0,9671035,44210579,275977000*7E,1600231157000
NMEA,$GPGGA,043919.691,,,,,0,,,,,,,,*70,1600231158000
NMEA,$GPGLL,0120.9337,N,10342.5378,E,043919.691,V,N*49,1600231158000
NMEA,$GPVTG,0.0,T,,M,0.0,N,0.0,K,N*02,1600231158000
NMEA,$GPGSV,1,1,02,02,33,047,17,12,37,227,21*7F,1600231158000
NMEA,$GPRMC,043919.691,V,,,,,,,160920,,,N*49,1600231158000
NMEA,$PSAMCLK,2123,27597769,0,9671035,44253026,275977691*77,1600231158000
NMEA,$GPGGA,043919.691,,,,,0,,,,,,,,*70,1600231158000
NMEA,$GPGLL,0120.9337,N,10342.5378,E,043919.691,V,N*49,1600231158000
NMEA,$GPVTG,0.0,T,,M,0.0,N,0.0,K,N*02,1600231158000
NMEA,$GPGSV,1,1,02,02,33,047,15,12,37,227,21*7D,1600231158000
NMEA,$GPRMC,043919.691,V,,,,,,,160920,,,N*49,1600231158000
NMEA,$PSAMCLK,2123,27597769,0,9671035,44253026,275977691*77,1600231158000
NMEA,$GPGGA,043920.000,,,,,0,,,,,,,,*74,1600231159000
NMEA,$GPGLL,0120.9337,N,10342.5378,E,043920.000,V,N*4D,1600231159000
NMEA,$GPVTG,0.0,T,,M,0.0,N,0.0,K,N*02,1600231159000
NMEA,$GPGSV,1,1,02,02,33,047,14,12,37,227,21*7C,1600231159000
NMEA,$GPRMC,043920.000,V,,,,,,,160920,,,N*4D,1600231159000
NMEA,$PSAMCLK,2123,27597800,0,9671035,44271966,275978000*7B,1600231159000
NMEA,$GPGGA,043920.000,,,,,0,,,,,,,,*74,1600231159000
NMEA,$GPGLL,0120.9337,N,10342.5378,E,043920.000,V,N*4D,1600231159000
NMEA,$GPVTG,0.0,T,,M,0.0,N,0.0,K,N*02,1600231159000
NMEA,$GPGSV,1,1,02,02,33,047,14,12,37,227,21*7C,1600231159000
NMEA,$GPRMC,043920.000,V,,,,,,,160920,,,N*4D,1600231159000
NMEA,$PSAMCLK,2123,27597800,0,9671035,44271966,275978000*7B,1600231159000
NMEA,$GPGGA,043921.000,,,,,0,,,,,,,,*75,1600231160000
NMEA,$GPGLL,0120.9337,N,10342.5378,E,043921.000,V,N*4C,1600231160000
NMEA,$GPVTG,0.0,T,,M,0.0,N,0.0,K,N*02,1600231160000
NMEA,$GPGSV,1,1,02,02,33,047,13,12,37,227,20*7A,1600231160000
NMEA,$GPRMC,043921.000,V,,,,,,,160920,,,N*4C,1600231160000
NMEA,$PSAMCLK,2123,27597900,0,9671035,44333353,275979000*70,1600231160000
NMEA,$GPGGA,043921.000,,,,,0,,,,,,,,*75,1600231160000
NMEA,$GPGLL,0120.9337,N,10342.5378,E,043921.000,V,N*4C,1600231160000
NMEA,$GPVTG,0.0,T,,M,0.0,N,0.0,K,N*02,1600231160000
NMEA,$GPGSV,1,1,02,02,33,047,12,12,37,227,20*7B,1600231160000
NMEA,$GPRMC,043921.000,V,,,,,,,160920,,,N*4C,1600231160000
NMEA,$PSAMCLK,2123,27597900,0,9671035,44333353,275979000*70,1600231160000
NMEA,$GPGGA,043922.000,,,,,0,,,,,,,,*76,1600231161000
NMEA,$GPGLL,0120.9337,N,10342.5378,E,043922.000,V,N*4F,1600231161000
NMEA,$GPVTG,0.0,T,,M,0.0,N,0.0,K,N*02,1600231161000
NMEA,$GPGSV,1,1,01,12,37,227,20*4A,1600231161000
NMEA,$GPRMC,043922.000,V,,,,,,,160920,,,N*4F,1600231161000
NMEA,$PSAMCLK,2123,27598000,0,9671035,44394740,275980000*7B,1600231161000
NMEA,$GPGGA,043922.000,,,,,0,,,,,,,,*76,1600231161000
NMEA,$GPGLL,0120.9337,N,10342.5378,E,043922.000,V,N*4F,1600231161000
NMEA,$GPVTG,0.0,T,,M,0.0,N,0.0,K,N*02,1600231161000
NMEA,$GPGSV,1,1,01,12,37,227,20*4A,1600231161000
NMEA,$GPRMC,043922.000,V,,,,,,,160920,,,N*4F,1600231161000
NMEA,$PSAMCLK,2123,27598000,0,9671035,44394740,275980000*7B,1600231161000
Raw,178777384,0,,,-9223372036854775808,,,,,0,12,0.0,47,275980925430043,40,20.700000762939453,18656.279296875,0.40569597482681274,0,0.0,0.0,1.57542003E9,,,,0,24.100000381469727,1,1.2999999523162842,1.57542003E9
