# 
# Header Description:
# 
# Version: v2.0.0.1 Platform: 9 Manufacturer: samsung Model: SM-A507FN
# 
# Raw,ElapsedRealtimeMillis,TimeNanos,LeapSecond,TimeUncertaintyNanos,FullBiasNanos,BiasNanos,BiasUncertaintyNanos,DriftNanosPerSecond,DriftUncertaintyNanosPerSecond,HardwareClockDiscontinuityCount,Svid,TimeOffsetNanos,State,ReceivedSvTimeNanos,ReceivedSvTimeUncertaintyNanos,Cn0DbHz,PseudorangeRateMetersPerSecond,PseudorangeRateUncertaintyMetersPerSecond,AccumulatedDeltaRangeState,AccumulatedDeltaRangeMeters,AccumulatedDeltaRangeUncertaintyMeters,CarrierFrequencyHz,CarrierCycles,CarrierPhase,CarrierPhaseUncertainty,MultipathIndicator,SnrInDb,ConstellationType,AgcDb,CarrierFrequencyHz
# 
# Fix,Provider,Latitude,Longitude,Altitude,Speed,Accuracy,(UTC)TimeInMs
# 
# Nav,Svid,Type,Status,MessageId,Sub-messageId,Data(Bytes)
# 
Nav,2,1537,0,10,40,-108,-60,62,40,36,119,-6,118,17,119,34,104,0,0,28,-112,112,-117,-52,-9,-127,112,111,42,113,111,-112,-84,0,64,55,80
Nav,2,1537,0,10,40,-108,-60,62,40,36,119,-6,118,17,119,34,104,0,0,28,-112,112,-117,-52,-9,-127,112,111,42,113,111,-112,-84,0,64,55,80
Raw,178059177,0,,,-9223372036854775808,,,,,0,12,0.0,47,275262925995895,28,24.5,18625.697265625,0.26298487186431885,0,0.0,0.0,1.57542003E9,,,,0,20.0,1,-5.199999809265137,1.57542003E9
Raw,178059178,0,,,-9223372036854775808,,,,,0,24,0.0,47,275262920160510,33,22.600000381469727,18053.330078125,0.32283055782318115,0,0.0,0.0,1.57542003E9,,,,0,18.399999618530273,1,-5.199999809265137,1.57542003E9
Raw,178059178,0,,,-9223372036854775808,,,,,0,25,0.0,47,275262921594265,51,18.600000381469727,18382.830078125,0.5406574010848999,0,0.0,0.0,1.57542003E9,,,,0,12.699999809265137,1,-5.199999809265137,1.57542003E9
Raw,178059178,0,,,-9223372036854775808,,,,,0,2,0.0,7215,275262913062607,25,26.200000762939453,18593.435546875,0.2224990874528885,0,0.0,0.0,1.57542003E9,,,,0,20.5,6,-5.199999809265137,1.57542003E9
Raw,178059178,0,,,-9223372036854775808,,,,,0,8,0.0,7215,275262912811600,31,23.5,17902.21484375,0.29218408465385437,0,0.0,0.0,1.57542003E9,,,,0,17.5,6,-5.199999809265137,1.57542003E9
Raw,178059178,0,,,-9223372036854775808,,,,,0,25,0.0,7215,275262909918719,32,23.100000381469727,18636.265625,0.3052409589290619,0,0.0,0.0,1.57542003E9,,,,0,18.399999618530273,6,-5.199999809265137,1.57542003E9
Raw,178059178,0,,,-9223372036854775808,,,,,0,10,0.0,815,275248876267535,33,22.899999618530273,18609.95703125,0.3121001422405243,0,0.0,0.0,1.56109798E9,,,,0,18.799999237060547,5,-5.199999809265137,1.56109798E9
Raw,178059179,0,,,-9223372036854775808,,,,,0,7,0.0,815,275248874064099,32,23.200000762939453,18599.47265625,0.3018958866596222,0,0.0,0.0,1.56109798E9,,,,0,17.700000762939453,5,-5.199999809265137,1.56109798E9
Raw,178059179,0,,,-9223372036854775808,,,,,0,9,0.0,815,275248879307554,41,20.600000381469727,18260.146484375,0.4109138548374176,0,0.0,0.0,1.56109798E9,,,,0,17.5,5,-5.199999809265137,1.56109798E9
Raw,178059190,0,,,-9223372036854775808,,,,,0,12,0.0,47,275262925995895,28,24.5,18625.697265625,0.26298487186431885,0,0.0,0.0,1.57542003E9,,,,0,20.0,1,-5.199999809265137,1.57542003E9
Raw,178059191,0,,,-9223372036854775808,,,,,0,24,0.0,47,275262920160510,33,22.600000381469727,18053.330078125,0.32283055782318115,0,0.0,0.0,1.57542003E9,,,,0,18.399999618530273,1,-5.199999809265137,1.57542003E9
Raw,178059191,0,,,-9223372036854775808,,,,,0,25,0.0,47,275262921594265,51,18.600000381469727,18382.830078125,0.5406574010848999,0,0.0,0.0,1.57542003E9,,,,0,12.699999809265137,1,-5.199999809265137,1.57542003E9
Raw,178059191,0,,,-9223372036854775808,,,,,0,2,0.0,7215,275262913062607,25,26.200000762939453,18593.435546875,0.2224990874528885,0,0.0,0.0,1.57542003E9,,,,0,20.5,6,-5.199999809265137,1.57542003E9
Raw,178059191,0,,,-9223372036854775808,,,,,0,8,0.0,7215,275262912811600,31,23.5,17902.21484375,0.29218408465385437,0,0.0,0.0,1.57542003E9,,,,0,17.5,6,-5.199999809265137,1.57542003E9
Raw,178059191,0,,,-9223372036854775808,,,,,0,25,0.0,7215,275262909918719,32,23.100000381469727,18636.265625,0.3052409589290619,0,0.0,0.0,1.57542003E9,,,,0,18.399999618530273,6,-5.199999809265137,1.57542003E9
Raw,178059191,0,,,-9223372036854775808,,,,,0,10,0.0,815,275248876267535,33,22.899999618530273,18609.95703125,0.3121001422405243,0,0.0,0.0,1.56109798E9,,,,0,18.799999237060547,5,-5.199999809265137,1.56109798E9
Raw,178059192,0,,,-9223372036854775808,,,,,0,7,0.0,815,275248874064099,32,23.200000762939453,18599.47265625,0.3018958866596222,0,0.0,0.0,1.56109798E9,,,,0,17.700000762939453,5,-5.199999809265137,1.56109798E9
Raw,178059192,0,,,-9223372036854775808,,,,,0,9,0.0,815,275248879307554,41,20.600000381469727,18260.146484375,0.4109138548374176,0,0.0,0.0,1.56109798E9,,,,0,17.5,5,-5.199999809265137,1.56109798E9
NMEA,$GPGGA,042725.000,,,,,0,,,,,,,,*7E,1600230443000
NMEA,$GPGLL,0120.9409,N,10342.5161,E,042725.000,V,N*47,1600230443000
NMEA,$GPVTG,233.1,T,,M,2.7,N,5.0,K,N*01,1600230443000
NMEA,$GPGSV,1,1,03,12,39,234,25,24,19,195,23,25,23,271,19*49,1600230443000
NMEA,$GAGSV,1,1,03,102,27,223,26,108,08,217,24,125,19,169,23*68,1600230443000
NMEA,$BDGSV,1,1,03,207,36,175,23,209,64,172,21,210,46,208,23*6D,1600230443000
NMEA,$GPRMC,042725.000,V,,,,,,,160920,,,N*47,1600230443000
NMEA,$PSAMCLK,2123,27526300,9,9671850,369651,275263000*7A,1600230443000
NMEA,$GPGGA,042725.000,,,,,0,,,,,,,,*7E,1600230443000
NMEA,$GPGLL,0120.9409,N,10342.5161,E,042725.000,V,N*47,1600230443000
NMEA,$GPVTG,233.1,T,,M,2.7,N,5.0,K,N*01,1600230443000
NMEA,$GPGSV,1,1,03,12,39,234,25,24,19,195,23,25,23,271,19*49,1600230443000
NMEA,$GAGSV,1,1,03,102,27,223,26,108,08,217,24,125,19,169,23*68,1600230443000
NMEA,$BDGSV,1,1,03,207,36,175,23,209,64,172,21,210,46,208,23*6D,1600230443000
NMEA,$GPRMC,042725.000,V,,,,,,,160920,,,N*47,1600230443000
NMEA,$PSAMCLK,2123,27526300,9,9671850,369651,275263000*7A,1600230443000
Nav,25,1537,0,10,55,64,16,-85,119,12,-22,95,-26,126,-42,61,-31,0,0,22,-59,108,-20,-117,-16,-2,101,58,-125,110,42,-18,-18,0,-64,13,-107
Nav,25,1537,0,10,55,64,16,-85,119,12,-22,95,-26,126,-42,61,-31,0,0,22,-59,108,-20,-117,-16,-2,101,58,-125,110,42,-18,-18,0,-64,13,-107
NMEA,$GPGGA,042726.000,,,,,0,,,,,,,,*7D,1600230444000
Raw,178060248,0,,,-9223372036854775808,,,,,0,12,0.0,47,275263925995123,28,24.5,18626.02734375,0.26298487186431885,0,0.0,0.0,1.57542003E9,,,,0,21.600000381469727,1,-5.199999809265137,1.57542003E9
Raw,178060248,0,,,-9223372036854775808,,,,,0,24,0.0,47,275263920161623,34,22.5,18055.125,0.3265306055545807,0,0.0,0.0,1.57542003E9,,,,0,17.299999237060547,1,-5.199999809265137,1.57542003E9
Raw,178060249,0,,,-9223372036854775808,,,,,0,25,0.0,47,275263921594336,51,18.5,18382.98046875,0.5486968159675598,0,0.0,0.0,1.57542003E9,,,,0,10.800000190734863,1,-5.199999809265137,1.57542003E9
Raw,178060249,0,,,-9223372036854775808,,,,,0,2,0.0,7215,275263913061956,24,26.299999237060547,18591.8515625,0.22041483223438263,0,0.0,0.0,1.57542003E9,,,,0,21.5,6,-5.199999809265137,1.57542003E9
Raw,178060249,0,,,-9223372036854775808,,,,,0,8,0.0,7215,275263912813216,31,23.5,17901.849609375,0.29218408465385437,0,0.0,0.0,1.57542003E9,,,,0,18.299999237060547,6,-5.199999809265137,1.57542003E9
Raw,178060250,0,,,-9223372036854775808,,,,,0,25,0.0,7215,275263909917880,32,23.200000762939453,18636.05859375,0.3018958866596222,0,0.0,0.0,1.57542003E9,,,,0,17.299999237060547,6,-5.199999809265137,1.57542003E9
Raw,178060250,0,,,-9223372036854775808,,,,,0,10,0.0,815,275249876266767,33,22.899999618530273,18611.392578125,0.3121001422405243,0,0.0,0.0,1.56109798E9,,,,0,20.399999618530273,5,-5.199999809265137,1.56109798E9
Raw,178060251,0,,,-9223372036854775808,,,,,0,7,0.0,815,275249874063389,32,23.200000762939453,18600.421875,0.3018958866596222,0,0.0,0.0,1.56109798E9,,,,0,19.200000762939453,5,-5.199999809265137,1.56109798E9
Raw,178060264,0,,,-9223372036854775808,,,,,0,9,0.0,815,275249879307967,41,20.600000381469727,18260.6171875,0.4109138548374176,0,0.0,0.0,1.56109798E9,,,,0,16.5,5,-5.199999809265137,1.56109798E9
Nav,10,1281,0,88,5,59,84,112,59,104,98,77,63,-1,-1,-5,47,-128,-26,31,63,54,-1,-15,7,-52,-127,20,0,-52,112,-63,29,96,13,-103,14,48,-121,-58,9,-34,42,12,62
Nav,10,1281,0,88,5,59,84,112,59,104,98,77,63,-1,-1,-5,47,-128,-26,31,63,54,-1,-15,7,-52,-127,20,0,-52,112,-63,29,96,13,-103,14,48,-121,-58,9,-34,42,12,62
Nav,9,1281,0,49,6,-37,109,-83,26,75,-59,-58,30,-109,39,-73,56,-127,67,24,7,32,-118,103,30,0,13,57,8,2,4,52,0,-56,7,-23,14,53,-27,9,48,108,127,57,12
Nav,9,1281,0,49,6,-37,109,-83,26,75,-59,-58,30,-109,39,-73,56,-127,67,24,7,32,-118,103,30,0,13,57,8,2,4,52,0,-56,7,-23,14,53,-27,9,48,108,127,57,12
Nav,7,1281,0,63,1,-76,-108,-72,56,81,-3,-80,3,36,68,111,60,-40,35,74,28,-2,-3,73,39,-65,0,-128,3,100,7,28,32,-92,-49,-51,20,-53,20,4,7,-2,90,-54,15
Nav,7,1281,0,63,1,-76,-108,-72,56,81,-3,-80,3,36,68,111,60,-40,35,74,28,-2,-3,73,39,-65,0,-128,3,100,7,28,32,-92,-49,-51,20,-53,20,4,7,-2,90,-54,15
Raw,178060300,0,,,-9223372036854775808,,,,,0,12,0.0,47,275263925995123,28,24.5,18626.02734375,0.26298487186431885,0,0.0,0.0,1.57542003E9,,,,0,21.600000381469727,1,-5.199999809265137,1.57542003E9
Raw,178060301,0,,,-9223372036854775808,,,,,0,24,0.0,47,275263920161623,34,22.5,18055.125,0.3265306055545807,0,0.0,0.0,1.57542003E9,,,,0,17.299999237060547,1,-5.199999809265137,1.57542003E9
Raw,178060301,0,,,-9223372036854775808,,,,,0,25,0.0,47,275263921594336,52,18.399999618530273,18382.98046875,0.5569169521331787,0,0.0,0.0,1.57542003E9,,,,0,10.800000190734863,1,-5.199999809265137,1.57542003E9
Raw,178060301,0,,,-9223372036854775808,,,,,0,2,0.0,7215,275263913061956,24,26.299999237060547,18591.8515625,0.22041483223438263,0,0.0,0.0,1.57542003E9,,,,0,21.5,6,-5.199999809265137,1.57542003E9
Raw,178060302,0,,,-9223372036854775808,,,,,0,8,0.0,7215,275263912813216,31,23.5,17901.849609375,0.29218408465385437,0,0.0,0.0,1.57542003E9,,,,0,18.299999237060547,6,-5.199999809265137,1.57542003E9
Raw,178060302,0,,,-9223372036854775808,,,,,0,25,0.0,7215,275263909917880,32,23.200000762939453,18636.05859375,0.3018958866596222,0,0.0,0.0,1.57542003E9,,,,0,17.299999237060547,6,-5.199999809265137,1.57542003E9
Raw,178060302,0,,,-9223372036854775808,,,,,0,10,0.0,815,275249876266767,33,22.899999618530273,18611.392578125,0.3121001422405243,0,0.0,0.0,1.56109798E9,,,,0,20.399999618530273,5,-5.199999809265137,1.56109798E9
Raw,178060302,0,,,-9223372036854775808,,,,,0,7,0.0,815,275249874063389,32,23.100000381469727,18600.421875,0.3052409589290619,0,0.0,0.0,1.56109798E9,,,,0,19.200000762939453,5,-5.199999809265137,1.56109798E9
Raw,178060303,0,,,-9223372036854775808,,,,,0,9,0.0,815,275249879307967,41,20.5,18260.6171875,0.416233092546463,0,0.0,0.0,1.56109798E9,,,,0,16.5,5,-5.199999809265137,1.56109798E9
NMEA,$GPGLL,0120.9408,N,10342.5161,E,042726.000,V,N*45,1600230444000
NMEA,$GPVTG,214.6,T,,M,2.4,N,4.5,K,N*04,1600230444000
NMEA,$GPGSV,1,1,03,12,39,234,25,24,19,195,23,25,23,271,19*49,1600230444000
NMEA,$GAGSV,1,1,03,102,27,223,26,108,08,217,24,125,19,169,23*68,1600230444000
NMEA,$BDGSV,1,1,03,207,36,175,23,209,64,172,21,210,46,208,23*6D,1600230444000
NMEA,$GPRMC,042726.000,V,,,,,,,160920,,,N*44,1600230444000
NMEA,$PSAMCLK,2123,27526400,9,9671814,431038,275264000*79,1600230444000
NMEA,$GPGGA,042726.000,,,,,0,,,,,,,,*7D,1600230445000
NMEA,$GPGLL,0120.9408,N,10342.5161,E,042726.000,V,N*45,1600230445000
NMEA,$GPVTG,214.6,T,,M,2.4,N,4.5,K,N*04,1600230445000
NMEA,$GPGSV,1,1,03,12,39,234,25,24,19,195,23,25,23,271,18*48,1600230445000
NMEA,$GAGSV,1,1,03,102,27,223,26,108,08,217,24,125,19,169,23*68,1600230445000
NMEA,$BDGSV,1,1,03,207,36,175,23,209,64,172,21,210,46,208,23*6D,1600230445000
NMEA,$GPRMC,042726.000,V,,,,,,,160920,,,N*44,1600230445000
NMEA,$PSAMCLK,2123,27526400,9,9671814,431038,275264000*79,1600230445000
Nav,8,1537,0,10,7,119,112,98,7,5,-102,-112,-77,8,-118,7,-74,0,-64,-26,-109,82,-102,124,-82,-29,55,43,104,6,-95,-113,-59,0,0,-5,58
Nav,8,1537,0,10,7,119,112,98,7,5,-102,-112,-77,8,-118,7,-74,0,-64,-26,-109,82,-102,124,-82,-29,55,43,104,6,-95,-113,-59,0,0,-5,58
Nav,25,1537,0,10,55,64,16,-85,119,12,-22,95,-26,126,-42,61,-31,0,0,22,-59,-79,-81,59,-79,-45,21,-41,38,111,-44,-42,-30,0,-64,19,36
Nav,25,1537,0,10,55,64,16,-85,119,12,-22,95,-26,126,-42,61,-31,0,0,22,-59,-79,-81,59,-79,-45,21,-41,38,111,-44,-42,-30,0,-64,19,36
NMEA,$GPGGA,042727.000,,,,,0,,,,,,,,*7C,1600230445000
NMEA,$GPGLL,0120.9411,N,10342.5164,E,042727.000,V,N*49,1600230445000
NMEA,$GPVTG,208.9,T,,M,1.4,N,2.6,K,N*00,1600230445000
NMEA,$GPGSV,1,1,03,12,39,234,25,24,19,195,23,25,23,271,18*48,1600230445000
NMEA,$GAGSV,1,1,03,102,27,223,27,108,08,217,24,125,19,169,23*69,1600230445000
Raw,178061246,0,,,-9223372036854775808,,,,,0,12,0.0,47,275264925994416,28,24.5,18625.2109375,0.26298487186431885,0,0.0,0.0,1.57542003E9,,,,0,21.299999237060547,1,-5.199999809265137,1.57542003E9
Raw,178061252,0,,,-9223372036854775808,,,,,0,24,0.0,47,275264920162858,34,22.5,18055.845703125,0.3265306055545807,0,0.0,0.0,1.57542003E9,,,,0,15.800000190734863,1,-5.199999809265137,1.57542003E9
Raw,178061253,0,,,-9223372036854775808,,,,,0,25,0.0,47,275264921594428,52,18.399999618530273,18382.697265625,0.5569169521331787,0,0.0,0.0,1.57542003E9,,,,0,15.300000190734863,1,-5.199999809265137,1.57542003E9
Raw,178061253,0,,,-9223372036854775808,,,,,0,2,0.0,7215,275264913061379,24,26.5,18593.3671875,0.21633315086364746,0,0.0,0.0,1.57542003E9,,,,0,21.399999618530273,6,-5.199999809265137,1.57542003E9
Raw,178061253,0,,,-9223372036854775808,,,,,0,8,0.0,7215,275264912814951,30,23.700000762939453,17901.263671875,0.28596755862236023,0,0.0,0.0,1.57542003E9,,,,0,18.700000762939453,6,-5.199999809265137,1.57542003E9
Raw,178061254,0,,,-9223372036854775808,,,,,0,25,0.0,7215,275264909917175,31,23.299999237060547,18636.609375,0.2986055314540863,0,0.0,0.0,1.57542003E9,,,,0,18.0,6,-5.199999809265137,1.57542003E9
Raw,178061254,0,,,-9223372036854775808,,,,,0,10,0.0,815,275250876266171,32,23.100000381469727,18612.044921875,0.3052409589290619,0,0.0,0.0,1.56109798E9,,,,0,20.100000381469727,5,-5.199999809265137,1.56109798E9
Raw,178061255,0,,,-9223372036854775808,,,,,0,7,0.0,815,275250874062797,32,23.100000381469727,18601.03125,0.3052409589290619,0,0.0,0.0,1.56109798E9,,,,0,18.700000762939453,5,-5.199999809265137,1.56109798E9
Raw,178061255,0,,,-9223372036854775808,,,,,0,9,0.0,815,275250879308474,41,20.5,18260.998046875,0.416233092546463,0,0.0,0.0,1.56109798E9,,,,0,16.200000762939453,5,-5.199999809265137,1.56109798E9
Raw,178061273,0,,,-9223372036854775808,,,,,0,12,0.0,47,275264925994416,28,24.5,18625.2109375,0.26298487186431885,0,0.0,0.0,1.57542003E9,,,,0,21.299999237060547,1,-5.199999809265137,1.57542003E9
Raw,178061273,0,,,-9223372036854775808,,,,,0,24,0.0,47,275264920162858,34,22.5,18055.845703125,0.3265306055545807,0,0.0,0.0,1.57542003E9,,,,0,15.800000190734863,1,-5.199999809265137,1.57542003E9
Raw,178061273,0,,,-9223372036854775808,,,,,0,25,0.0,47,275264921594428,53,18.299999237060547,18382.697265625,0.5653230547904968,0,0.0,0.0,1.57542003E9,,,,0,15.300000190734863,1,-5.199999809265137,1.57542003E9
Raw,178061273,0,,,-9223372036854775808,,,,,0,2,0.0,7215,275264913061379,24,26.5,18593.3671875,0.21633315086364746,0,0.0,0.0,1.57542003E9,,,,0,21.399999618530273,6,-5.199999809265137,1.57542003E9
Raw,178061273,0,,,-9223372036854775808,,,,,0,8,0.0,7215,275264912814951,30,23.700000762939453,17901.263671875,0.28596755862236023,0,0.0,0.0,1.57542003E9,,,,0,18.700000762939453,6,-5.199999809265137,1.57542003E9
Raw,178061273,0,,,-9223372036854775808,,,,,0,25,0.0,7215,275264909917175,31,23.299999237060547,18636.609375,0.2986055314540863,0,0.0,0.0,1.57542003E9,,,,0,18.0,6,-5.199999809265137,1.57542003E9
Raw,178061273,0,,,-9223372036854775808,,,,,0,10,0.0,815,275250876266171,32,23.100000381469727,18612.044921875,0.3052409589290619,0,0.0,0.0,1.56109798E9,,,,0,20.100000381469727,5,-5.199999809265137,1.56109798E9
Raw,178061274,0,,,-9223372036854775808,,,,,0,7,0.0,815,275250874062797,32,23.100000381469727,18601.03125,0.3052409589290619,0,0.0,0.0,1.56109798E9,,,,0,18.700000762939453,5,-5.199999809265137,1.56109798E9
Raw,178061274,0,,,-9223372036854775808,,,,,0,9,0.0,815,275250879308474,41,20.5,18260.998046875,0.416233092546463,0,0.0,0.0,1.56109798E9,,,,0,16.200000762939453,5,-5.199999809265137,1.56109798E9
NMEA,$BDGSV,1,1,03,207,36,175,23,209,64,172,21,210,46,208,23*6D,1600230445000
NMEA,$GPRMC,042727.000,V,,,,,,,160920,,,N*45,1600230445000
NMEA,$PSAMCLK,2123,27526500,9,9671635,492421,275265000*71,1600230445000
NMEA,$GPGGA,042727.000,,,,,0,,,,,,,,*7C,1600230446000
NMEA,$GPGLL,0120.9411,N,10342.5164,E,042727.000,V,N*49,1600230446000
NMEA,$GPVTG,208.9,T,,M,1.4,N,2.6,K,N*00,1600230446000
NMEA,$GPGSV,1,1,03,12,39,234,25,24,19,195,23,25,23,271,18*48,1600230446000
NMEA,$GAGSV,1,1,03,102,27,223,27,108,08,217,24,125,19,169,23*69,1600230446000
NMEA,$BDGSV,1,1,04,207,36,175,23,209,64,172,21,210,46,208,23,222,50,271,18*60,1600230446000
NMEA,$GPRMC,042727.000,V,,,,,,,160920,,,N*45,1600230446000
NMEA,$PSAMCLK,2123,27526500,9,9671635,492421,275265000*71,1600230446000
Nav,8,1537,0,10,7,119,112,98,7,5,-102,-112,-77,8,-118,7,-74,0,-64,-26,-109,-6,95,44,-22,101,13,20,77,-80,41,-29,80,0,0,-1,-69
Nav,8,1537,0,10,7,119,112,98,7,5,-102,-112,-77,8,-118,7,-74,0,-64,-26,-109,-6,95,44,-22,101,13,20,77,-80,41,-29,80,0,0,-1,-69
Nav,25,1537,0,10,55,64,16,-85,119,12,-22,95,-26,126,-42,61,-31,0,0,22,-59,-123,-51,-121,-29,92,-24,-34,-12,-20,-55,-111,114,0,0,45,-121
Nav,25,1537,0,10,55,64,16,-85,119,12,-22,95,-26,126,-42,61,-31,0,0,22,-59,-123,-51,-121,-29,92,-24,-34,-12,-20,-55,-111,114,0,0,45,-121
Raw,178062219,0,,,-9223372036854775808,,,,,0,12,0.0,47,275265925993666,28,24.600000381469727,18624.767578125,0.2603082060813904,0,0.0,0.0,1.57542003E9,,,,0,21.299999237060547,1,-5.199999809265137,1.57542003E9
Raw,178062220,0,,,-9223372036854775808,,,,,0,24,0.0,47,275265920164040,34,22.399999618530273,18054.298828125,0.3302946388721466,0,0.0,0.0,1.57542003E9,,,,0,17.200000762939453,1,-5.199999809265137,1.57542003E9
Raw,178062220,0,,,-9223372036854775808,,,,,0,25,0.0,47,275265921594518,53,18.200000762939453,18381.599609375,0.5739210844039917,0,0.0,0.0,1.57542003E9,,,,0,17.0,1,-5.199999809265137,1.57542003E9
Raw,178062220,0,,,-9223372036854775808,,,,,0,2,0.0,7215,275265913060739,24,26.700000762939453,18593.5625,0.21236379444599152,0,0.0,0.0,1.57542003E9,,,,0,21.799999237060547,6,-5.199999809265137,1.57542003E9
Raw,178062221,0,,,-9223372036854775808,,,,,0,8,0.0,7215,275265912816648,30,23.899999618530273,17901.935546875,0.2799473702907562,0,0.0,0.0,1.57542003E9,,,,0,18.0,6,-5.199999809265137,1.57542003E9
Raw,178062222,0,,,-9223372036854775808,,,,,0,25,0.0,7215,275265909916436,31,23.399999618530273,18636.99609375,0.29536861181259155,0,0.0,0.0,1.57542003E9,,,,0,19.299999237060547,6,-5.199999809265137,1.57542003E9
Raw,178062223,0,,,-9223372036854775808,,,,,0,10,0.0,815,275251876265471,31,23.299999237060547,18611.728515625,0.2986055314540863,0,0.0,0.0,1.56109798E9,,,,0,20.5,5,-5.199999809265137,1.56109798E9
Raw,178062223,0,,,-9223372036854775808,,,,,0,7,0.0,815,275251874062153,32,23.100000381469727,18601.931640625,0.3052409589290619,0,0.0,0.0,1.56109798E9,,,,0,18.799999237060547,5,-5.199999809265137,1.56109798E9
Raw,178062223,0,,,-9223372036854775808,,,,,0,9,0.0,815,275251879308989,41,20.5,18261.1328125,0.416233092546463,0,0.0,0.0,1.56109798E9,,,,0,14.899999618530273,5,-5.199999809265137,1.56109798E9
Raw,178062223,0,,,-9223372036854775808,,,,,0,22,0.0,815,275251923576448,48,19.0,18393.62109375,0.5102040767669678,0,0.0,0.0,1.56109798E9,,,,0,15.399999618530273,5,-5.199999809265137,1.56109798E9
Raw,178062258,0,,,-9223372036854775808,,,,,0,12,0.0,47,275265925993666,28,24.600000381469727,18624.767578125,0.2603082060813904,0,0.0,0.0,1.57542003E9,,,,0,21.299999237060547,1,-5.199999809265137,1.57542003E9
Raw,178062258,0,,,-9223372036854775808,,,,,0,24,0.0,47,275265920164040,34,22.399999618530273,18054.298828125,0.3302946388721466,0,0.0,0.0,1.57542003E9,,,,0,17.200000762939453,1,-5.199999809265137,1.57542003E9
Raw,178062258,0,,,-9223372036854775808,,,,,0,25,0.0,47,275265921594518,53,18.200000762939453,18381.599609375,0.5739210844039917,0,0.0,0.0,1.57542003E9,,,,0,17.0,1,-5.199999809265137,1.57542003E9
Raw,178062258,0,,,-9223372036854775808,,,,,0,2,0.0,7215,275265913060739,24,26.700000762939453,18593.5625,0.21236379444599152,0,0.0,0.0,1.57542003E9,,,,0,21.799999237060547,6,-5.199999809265137,1.57542003E9
Raw,178062259,0,,,-9223372036854775808,,,,,0,8,0.0,7215,275265912816648,30,23.899999618530273,17901.935546875,0.2799473702907562,0,0.0,0.0,1.57542003E9,,,,0,18.0,6,-5.199999809265137,1.57542003E9
Raw,178062259,0,,,-9223372036854775808,,,,,0,25,0.0,7215,275265909916436,31,23.399999618530273,18636.99609375,0.29536861181259155,0,0.0,0.0,1.57542003E9,,,,0,19.299999237060547,6,-5.199999809265137,1.57542003E9
Raw,178062259,0,,,-9223372036854775808,,,,,0,10,0.0,815,275251876265471,31,23.299999237060547,18611.728515625,0.2986055314540863,0,0.0,0.0,1.56109798E9,,,,0,20.5,5,-5.199999809265137,1.56109798E9
Raw,178062259,0,,,-9223372036854775808,,,,,0,7,0.0,815,275251874062153,32,23.0,18601.931640625,0.3086419701576233,0,0.0,0.0,1.56109798E9,,,,0,18.799999237060547,5,-5.199999809265137,1.56109798E9
Raw,178062260,0,,,-9223372036854775808,,,,,0,9,0.0,815,275251879308989,41,20.5,18261.1328125,0.416233092546463,0,0.0,0.0,1.56109798E9,,,,0,14.899999618530273,5,-5.199999809265137,1.56109798E9
Raw,178062260,0,,,-9223372036854775808,,,,,0,22,0.0,815,275251923576448,48,19.0,18393.62109375,0.5102040767669678,0,0.0,0.0,1.56109798E9,,,,0,15.399999618530273,5,-5.199999809265137,1.56109798E9
NMEA,$GPGGA,042728.000,,,,,0,,,,,,,,*73,1600230446000
NMEA,$GPGLL,0120.9412,N,10342.5168,E,042728.000,V,N*49,1600230446000
NMEA,$GPVTG,209.2,T,,M,1.8,N,3.3,K,N*02,1600230446000
NMEA,$GPGSV,1,1,03,12,39,234,25,24,19,195,22,25,23,271,18*49,1600230446000
NMEA,$GAGSV,1,1,03,102,27,223,27,108,08,217,24,125,19,169,23*69,1600230446000
NMEA,$BDGSV,1,1,04,207,36,175,23,209,64,172,21,210,46,208,23,222,50,271,19*61,1600230446000
NMEA,$GPRMC,042728.000,V,,,,,,,160920,,,N*4A,1600230446000
NMEA,$PSAMCLK,2123,27526600,9,9671498,553807,275266000*70,1600230446000
NMEA,$GPGGA,042728.000,,,,,0,,,,,,,,*73,1600230447000
NMEA,$GPGLL,0120.9412,N,10342.5168,E,042728.000,V,N*49,1600230447000
NMEA,$GPVTG,209.2,T,,M,1.8,N,3.3,K,N*02,1600230447000
NMEA,$GPGSV,1,1,03,12,39,234,25,24,19,195,22,25,23,271,18*49,1600230447000
NMEA,$GAGSV,1,1,03,102,27,223,27,108,08,217,24,125,19,169,23*69,1600230447000
NMEA,$BDGSV,1,1,04,207,36,175,23,209,64,172,21,210,46,208,23,222,50,271,19*61,1600230447000
NMEA,$GPRMC,042728.000,V,,,,,,,160920,,,N*4A,1600230447000
NMEA,$PSAMCLK,2123,27526600,9,9671498,553807,275266000*70,1600230447000
Raw,178063234,19211363453,18,0.0,-1284265647788636672,0.0,10.137636184692383,61390.31640625,0.0,0,12,0.0,47,275266925992869,28,24.700000762939453,18625.29296875,0.25767216086387634,0,0.0,0.0,1.57542003E9,,,,0,22.399999618530273,1,-5.199999809265137,1.57542003E9
Raw,178063235,19211363453,18,0.0,-1284265647788636672,0.0,10.137636184692383,61390.31640625,0.0,0,24,0.0,47,275266920165122,34,22.399999618530273,18053.77734375,0.3302946388721466,0,0.0,0.0,1.57542003E9,,,,0,16.0,1,-5.199999809265137,1.57542003E9
Raw,178063235,19211363453,18,0.0,-1284265647788636672,0.0,10.137636184692383,61390.31640625,0.0,0,25,0.0,47,275266921594572,53,18.200000762939453,18381.43359375,0.5739210844039917,0,0.0,0.0,1.57542003E9,,,,0,11.300000190734863,1,-5.199999809265137,1.57542003E9
Raw,178063236,19211363453,18,0.0,-1284265647788636672,0.0,10.137636184692383,61390.31640625,0.0,0,2,0.0,7215,275266913060096,24,26.799999237060547,18593.591796875,0.21042001247406006,0,0.0,0.0,1.57542003E9,,,,0,21.700000762939453,6,-5.199999809265137,1.57542003E9
Raw,178063236,19211363453,18,0.0,-1284265647788636672,0.0,10.137636184692383,61390.31640625,0.0,0,8,0.0,7215,275266912818278,30,23.899999618530273,17902.92578125,0.2799473702907562,0,0.0,0.0,1.57542003E9,,,,0,17.399999618530273,6,-5.199999809265137,1.57542003E9
Raw,178063236,19211363453,18,0.0,-1284265647788636672,0.0,10.137636184692383,61390.31640625,0.0,0,10,0.0,815,275252876264711,31,23.5,18611.400390625,0.29218408465385437,0,0.0,0.0,1.56109798E9,,,,0,19.399999618530273,5,-5.199999809265137,1.56109798E9
Raw,178063237,19211363453,18,0.0,-1284265647788636672,0.0,10.137636184692383,61390.31640625,0.0,0,25,0.0,7215,275266909915575,31,23.5,18637.345703125,0.29218408465385437,0,0.0,0.0,1.57542003E9,,,,0,16.899999618530273,6,-5.199999809265137,1.57542003E9
Raw,178063237,19211363453,18,0.0,-1284265647788636672,0.0,10.137636184692383,61390.31640625,0.0,0,7,0.0,815,275252874061421,32,23.0,18602.109375,0.3086419701576233,0,0.0,0.0,1.56109798E9,,,,0,18.299999237060547,5,-5.199999809265137,1.56109798E9
Raw,178063238,19211363453,18,0.0,-1284265647788636672,0.0,10.137636184692383,61390.31640625,0.0,0,9,0.0,815,275252879309410,41,20.600000381469727,18259.724609375,0.4109138548374176,0,0.0,0.0,1.56109798E9,,,,0,15.199999809265137,5,-5.199999809265137,1.56109798E9
Raw,178063239,19211363453,18,0.0,-1284265647788636672,0.0,10.137636184692383,61390.31640625,0.0,0,22,0.0,815,275252923576462,43,20.0,18393.564453125,0.4444444477558136,0,0.0,0.0,1.56109798E9,,,,0,17.399999618530273,5,-5.199999809265137,1.56109798E9
Raw,178063275,19211363453,18,0.0,-1284265647788636672,0.0,10.137636184692383,61390.31640625,0.0,0,12,0.0,47,275266925992869,28,24.700000762939453,18625.29296875,0.25767216086387634,0,0.0,0.0,1.57542003E9,,,,0,22.399999618530273,1,-5.199999809265137,1.57542003E9
Raw,178063276,19211363453,18,0.0,-1284265647788636672,0.0,10.137636184692383,61390.31640625,0.0,0,24,0.0,47,275266920165122,34,22.399999618530273,18053.77734375,0.3302946388721466,0,0.0,0.0,1.57542003E9,,,,0,16.0,1,-5.199999809265137,1.57542003E9
Raw,178063277,19211363453,18,0.0,-1284265647788636672,0.0,10.137636184692383,61390.31640625,0.0,0,25,0.0,47,275266921594572,53,18.200000762939453,18381.43359375,0.5739210844039917,0,0.0,0.0,1.57542003E9,,,,0,11.300000190734863,1,-5.199999809265137,1.57542003E9
Raw,178063277,19211363453,18,0.0,-1284265647788636672,0.0,10.137636184692383,61390.31640625,0.0,0,2,0.0,7215,275266913060096,24,26.799999237060547,18593.591796875,0.21042001247406006,0,0.0,0.0,1.57542003E9,,,,0,21.700000762939453,6,-5.199999809265137,1.57542003E9
Raw,178063277,19211363453,18,0.0,-1284265647788636672,0.0,10.137636184692383,61390.31640625,0.0,0,8,0.0,7215,275266912818278,30,23.899999618530273,17902.92578125,0.2799473702907562,0,0.0,0.0,1.57542003E9,,,,0,17.399999618530273,6,-5.199999809265137,1.57542003E9
Raw,178063278,19211363453,18,0.0,-1284265647788636672,0.0,10.137636184692383,61390.31640625,0.0,0,10,0.0,815,275252876264711,31,23.5,18611.400390625,0.29218408465385437,0,0.0,0.0,1.56109798E9,,,,0,19.399999618530273,5,-5.199999809265137,1.56109798E9
Raw,178063278,19211363453,18,0.0,-1284265647788636672,0.0,10.137636184692383,61390.31640625,0.0,0,25,0.0,7215,275266909915575,31,23.5,18637.345703125,0.29218408465385437,0,0.0,0.0,1.57542003E9,,,,0,16.899999618530273,6,-5.199999809265137,1.57542003E9
Raw,178063278,19211363453,18,0.0,-1284265647788636672,0.0,10.137636184692383,61390.31640625,0.0,0,7,0.0,815,275252874061421,32,23.0,18602.109375,0.3086419701576233,0,0.0,0.0,1.56109798E9,,,,0,18.299999237060547,5,-5.199999809265137,1.56109798E9
Raw,178063279,19211363453,18,0.0,-1284265647788636672,0.0,10.137636184692383,61390.31640625,0.0,0,9,0.0,815,275252879309410,41,20.600000381469727,18259.724609375,0.4109138548374176,0,0.0,0.0,1.56109798E9,,,,0,15.199999809265137,5,-5.199999809265137,1.56109798E9
Raw,178063279,19211363453,18,0.0,-1284265647788636672,0.0,10.137636184692383,61390.31640625,0.0,0,22,0.0,815,275252923576462,43,20.0,18393.564453125,0.4444444477558136,0,0.0,0.0,1.56109798E9,,,,0,17.399999618530273,5,-5.199999809265137,1.56109798E9
Fix,gps,1.349000,103.708605,41.000000,1.000000,59.000000,1600230449000
NMEA,$GPGGA,042729.000,0120.9400,N,10342.5162,E,1,07,3.2,37.3,M,3.2,M,,*5C,1600230448000
NMEA,$GPGLL,0120.9400,N,10342.5162,E,042729.000,A,A*59,1600230448000
NMEA,$GPVTG,219.2,T,,M,1.9,N,3.6,K,A*08,1600230448000
NMEA,$GPGSV,1,1,03,12,39,234,25,24,19,195,22,25,23,271,18*49,1600230448000
NMEA,$GAGSV,1,1,03,102,27,223,27,108,08,217,24,125,19,169,24*6E,1600230448000
NMEA,$BDGSV,1,1,04,207,36,175,23,209,64,172,21,210,46,208,24,222,50,271,20*6C,1600230448000
NMEA,$GPGSA,A,3,12,,,,,,,,,,,,4.4,3.2,3.0*33,1600230448000
NMEA,$GAGSA,A,3,102,108,125,,,,,,,,,,4.4,3.2,3.0*1D,1600230448000
NMEA,$BDGSA,A,3,207,210,222,,,,,,,,,,4.4,3.2,3.0*15,1600230448000
NMEA,$GPRMC,042729.000,A,0120.9400,N,10342.5162,E,1.9,219.2,160920,,,A*62,1600230448000
NMEA,$PSAMCLK,2123,27526700,7,9671553,615204,275267000*70,1600230448000
NMEA,$GPGGA,042729.000,0120.9400,N,10342.5162,E,1,07,3.2,37.3,M,3.2,M,,*5C,1600230448000
NMEA,$GPGLL,0120.9400,N,10342.5162,E,042729.000,A,A*59,1600230448000
NMEA,$GPVTG,219.2,T,,M,1.9,N,3.6,K,A*08,1600230448000
NMEA,$GPGSV,1,1,03,12,39,234,25,24,19,195,22,25,23,271,18*49,1600230448000
NMEA,$GAGSV,1,1,03,102,27,223,27,108,08,217,24,125,19,169,24*6E,1600230448000
NMEA,$BDGSV,1,1,04,207,36,175,23,209,64,172,21,210,46,208,24,222,50,271,20*6C,1600230448000
NMEA,$GPGSA,A,3,12,,,,,,,,,,,,4.4,3.2,3.0*33,1600230448000
NMEA,$GAGSA,A,3,102,108,125,,,,,,,,,,4.4,3.2,3.0*1D,1600230448000
NMEA,$BDGSA,A,3,207,210,222,,,,,,,,,,4.4,3.2,3.0*15,1600230448000
NMEA,$GPRMC,042729.000,A,0120.9400,N,10342.5162,E,1.9,219.2,160920,,,A*62,1600230448000
NMEA,$PSAMCLK,2123,27526700,7,9671553,615204,275267000*70,1600230448000
Nav,2,1537,0,10,2,-98,-62,17,2,-35,-83,-99,-77,79,-15,111,55,0,-128,-39,-24,14,96,-108,-68,-9,43,-47,-89,-65,-98,-95,99,0,0,-75,-122
Nav,2,1537,0,10,2,-98,-62,17,2,-35,-83,-99,-77,79,-15,111,55,0,-128,-39,-24,14,96,-108,-68,-9,43,-47,-89,-65,-98,-95,99,0,0,-75,-122
Nav,25,1537,0,10,24,10,45,-9,24,40,113,126,-43,-93,-50,8,-14,0,0,-44,60,-5,-85,-34,-30,79,-107,101,-42,110,-102,73,37,0,-128,54,-74
Nav,25,1537,0,10,24,10,45,-9,24,40,113,126,-43,-93,-50,8,-14,0,0,-44,60,-5,-85,-34,-30,79,-107,101,-42,110,-102,73,37,0,-128,54,-74
Nav,12,257,0,-1,3,-25,52,-64,-34,71,36,-103,-55,60,-50,-25,-1,16,48,97,56,-29,9,-24,63,-51,-110,73,-51,26,52,-89,126,-76,11,102,-88,23,121,-22,0,127,-105,56,-32
Nav,12,257,0,-1,3,-25,52,-64,-34,71,36,-103,-55,60,-50,-25,-1,16,48,97,56,-29,9,-24,63,-51,-110,73,-51,26,52,-89,126,-76,11,102,-88,23,121,-22,0,127,-105,56,-32
Nav,24,257,0,-1,3,27,76,64,35,-104,61,25,-63,20,-34,37,48,-13,-48,83,42,-108,81,-68,-57,-80,74,111,8,19,81,48,3,2,45,22,-30,-8,-125,-81,-128,104,-65,-119,25
Nav,24,257,0,-1,3,27,76,64,35,-104,61,25,-63,20,-34,37,48,-13,-48,83,42,-108,81,-68,-57,-80,74,111,8,19,81,48,3,2,45,22,-30,-8,-125,-81,-128,104,-65,-119,25
Nav,25,257,0,-1,3,-122,84,118,-68,-93,-34,19,-93,59,51,-70,-48,-120,-40,64,-36,70,18,-16,63,-82,-61,127,-117,-109,-66,61,-116,-123,-47,3,-57,77,-61,1,66,5,-32,-71,104
Nav,25,257,0,-1,3,-122,84,118,-68,-93,-34,19,-93,59,51,-70,-48,-120,-40,64,-36,70,18,-16,63,-82,-61,127,-117,-109,-66,61,-116,-123,-47,3,-57,77,-61,1,66,5,-32,-71,104
NMEA,$GPGGA,042730.000,,,,,0,,,,,,,,*7A,1600230448000
NMEA,$GPGLL,0120.9392,N,10342.5163,E,042730.000,V,N*44,1600230448000
NMEA,$GPVTG,229.2,T,,M,2.1,N,3.8,K,N*01,1600230448000
NMEA,$GPGSV,1,1,03,12,39,234,25,24,19,195,22,25,23,271,18*49,1600230448000
Raw,178064219,0,,,-9223372036854775808,,,,,0,12,0.0,47,275267925992167,27,24.899999618530273,18626.1328125,0.252518892288208,0,0.0,0.0,1.57542003E9,,,,0,20.799999237060547,1,-5.199999809265137,1.57542003E9
Raw,178064219,0,,,-9223372036854775808,,,,,0,24,0.0,47,275267920166292,34,22.399999618530273,18053.84765625,0.3302946388721466,0,0.0,0.0,1.57542003E9,,,,0,17.600000381469727,1,-5.199999809265137,1.57542003E9
Raw,178064219,0,,,-9223372036854775808,,,,,0,25,0.0,47,275267921594649,54,18.100000381469727,18381.86328125,0.5827165842056274,0,0.0,0.0,1.57542003E9,,,,0,14.199999809265137,1,-5.199999809265137,1.57542003E9
Raw,178064220,0,,,-9223372036854775808,,,,,0,2,0.0,7215,275267913059471,23,27.0,18593.208984375,0.20661157369613647,0,0.0,0.0,1.57542003E9,,,,0,21.299999237060547,6,-5.199999809265137,1.57542003E9
Raw,178064220,0,,,-9223372036854775808,,,,,0,8,0.0,7215,275267912819939,29,24.100000381469727,17902.794921875,0.27411526441574097,0,0.0,0.0,1.57542003E9,,,,0,18.200000762939453,6,-5.199999809265137,1.57542003E9
Raw,178064220,0,,,-9223372036854775808,,,,,0,25,0.0,7215,275267909914792,31,23.600000381469727,18637.09765625,0.28905072808265686,0,0.0,0.0,1.57542003E9,,,,0,18.799999237060547,6,-5.199999809265137,1.57542003E9
Raw,178064220,0,,,-9223372036854775808,,,,,0,10,0.0,815,275253876264057,31,23.600000381469727,18611.56640625,0.28905072808265686,0,0.0,0.0,1.56109798E9,,,,0,19.399999618530273,5,-5.199999809265137,1.56109798E9
Raw,178064221,0,,,-9223372036854775808,,,,,0,7,0.0,815,275253874060793,32,23.0,18602.501953125,0.3086419701576233,0,0.0,0.0,1.56109798E9,,,,0,18.0,5,-5.199999809265137,1.56109798E9
Raw,178064221,0,,,-9223372036854775808,,,,,0,9,0.0,815,275253879309899,40,20.700000762939453,18259.421875,0.40569597482681274,0,0.0,0.0,1.56109798E9,,,,0,18.799999237060547,5,-5.199999809265137,1.56109798E9
Raw,178064224,0,,,-9223372036854775808,,,,,0,22,0.0,815,275253923576494,41,20.5,18393.814453125,0.416233092546463,0,0.0,0.0,1.56109798E9,,,,0,17.600000381469727,5,-5.199999809265137,1.56109798E9
Raw,178064241,0,,,-9223372036854775808,,,,,0,12,0.0,47,275267925992167,27,24.899999618530273,18626.1328125,0.252518892288208,0,0.0,0.0,1.57542003E9,,,,0,20.799999237060547,1,-5.199999809265137,1.57542003E9
Raw,178064242,0,,,-9223372036854775808,,,,,0,24,0.0,47,275267920166292,34,22.399999618530273,18053.84765625,0.3302946388721466,0,0.0,0.0,1.57542003E9,,,,0,17.600000381469727,1,-5.199999809265137,1.57542003E9
Raw,178064242,0,,,-9223372036854775808,,,,,0,25,0.0,47,275267921594649,54,18.100000381469727,18381.86328125,0.5827165842056274,0,0.0,0.0,1.57542003E9,,,,0,14.199999809265137,1,-5.199999809265137,1.57542003E9
Raw,178064242,0,,,-9223372036854775808,,,,,0,2,0.0,7215,275267913059471,23,27.0,18593.208984375,0.20661157369613647,0,0.0,0.0,1.57542003E9,,,,0,21.299999237060547,6,-5.199999809265137,1.57542003E9
Raw,178064242,0,,,-9223372036854775808,,,,,0,8,0.0,7215,275267912819939,29,24.100000381469727,17902.794921875,0.27411526441574097,0,0.0,0.0,1.57542003E9,,,,0,18.200000762939453,6,-5.199999809265137,1.57542003E9
Raw,178064242,0,,,-9223372036854775808,,,,,0,25,0.0,7215,275267909914792,31,23.600000381469727,18637.09765625,0.28905072808265686,0,0.0,0.0,1.57542003E9,,,,0,18.799999237060547,6,-5.199999809265137,1.57542003E9
Raw,178064242,0,,,-9223372036854775808,,,,,0,10,0.0,815,275253876264057,31,23.600000381469727,18611.56640625,0.28905072808265686,0,0.0,0.0,1.56109798E9,,,,0,19.399999618530273,5,-5.199999809265137,1.56109798E9
Raw,178064243,0,,,-9223372036854775808,,,,,0,7,0.0,815,275253874060793,32,23.0,18602.501953125,0.3086419701576233,0,0.0,0.0,1.56109798E9,,,,0,18.0,5,-5.199999809265137,1.56109798E9
Raw,178064243,0,,,-9223372036854775808,,,,,0,9,0.0,815,275253879309899,40,20.700000762939453,18259.421875,0.40569597482681274,0,0.0,0.0,1.56109798E9,,,,0,18.799999237060547,5,-5.199999809265137,1.56109798E9
Raw,178064244,0,,,-9223372036854775808,,,,,0,22,0.0,815,275253923576494,41,20.5,18393.814453125,0.416233092546463,0,0.0,0.0,1.56109798E9,,,,0,17.600000381469727,5,-5.199999809265137,1.56109798E9
NMEA,$GAGSV,1,1,03,102,27,223,27,108,08,217,24,125,19,169,24*6E,1600230448000
NMEA,$BDGSV,1,1,04,207,36,175,23,209,64,172,21,210,46,208,24,222,50,271,21*6D,1600230448000
NMEA,$GPRMC,042730.000,V,,,,,,,160920,,,N*43,1600230448000
NMEA,$PSAMCLK,2123,27526800,8,9671597,676594,275268000*7C,1600230448000
NMEA,$GPGGA,042730.000,,,,,0,,,,,,,,*7A,1600230449000
NMEA,$GPGLL,0120.9392,N,10342.5163,E,042730.000,V,N*44,1600230449000
NMEA,$GPVTG,229.2,T,,M,2.1,N,3.8,K,N*01,1600230449000
NMEA,$GPGSV,1,1,03,12,39,234,25,24,19,195,22,25,23,271,18*49,1600230449000
NMEA,$GAGSV,1,1,03,102,27,223,27,108,08,217,24,125,19,169,24*6E,1600230449000
NMEA,$BDGSV,1,1,04,207,36,175,23,209,64,172,21,210,46,208,24,222,50,271,21*6D,1600230449000
NMEA,$GPRMC,042730.000,V,,,,,,,160920,,,N*43,1600230449000
NMEA,$PSAMCLK,2123,27526800,8,9671597,676594,275268000*7C,1600230449000
Nav,2,1537,0,10,2,-98,-62,17,2,-35,-83,-99,-77,79,-15,111,55,0,-128,-39,-24,84,-47,-113,-120,-34,-4,-5,2,58,-128,41,-73,0,64,126,-2
Nav,2,1537,0,10,2,-98,-62,17,2,-35,-83,-99,-77,79,-15,111,55,0,-128,-39,-24,84,-47,-113,-120,-34,-4,-5,2,58,-128,41,-73,0,64,126,-2
Nav,8,1537,0,10,62,6,20,-104,62,-119,-14,114,86,90,-56,-26,33,0,64,-118,126,43,-85,3,-49,26,12,-116,-4,-49,-128,22,-107,0,0,26,18
Nav,8,1537,0,10,62,6,20,-104,62,-119,-14,114,86,90,-56,-26,33,0,64,-118,126,43,-85,3,-49,26,12,-116,-4,-49,-128,22,-107,0,0,26,18
NMEA,$GPGGA,042731.000,,,,,0,,,,,,,,*7B,1600230449000
NMEA,$GPGLL,0120.9357,N,10342.5145,E,042731.000,V,N*48,1600230449000
NMEA,$GPVTG,229.8,T,,M,0.0,N,0.0,K,N*03,1600230449000
NMEA,$GPGSV,1,1,03,12,39,234,25,24,19,195,22,25,23,271,18*49,1600230449000
NMEA,$GAGSV,1,1,03,102,27,223,27,108,08,217,24,125,19,169,24*6E,1600230449000
NMEA,$BDGSV,1,1,04,207,36,175,23,209,64,172,21,210,46,208,24,222,50,271,21*6D,1600230449000
Raw,178065251,0,,,-9223372036854775808,,,,,0,12,0.0,47,275268925991473,27,24.899999618530273,18626.73046875,0.252518892288208,0,0.0,0.0,1.57542003E9,,,,0,21.0,1,-5.199999809265137,1.57542003E9
Raw,178065251,0,,,-9223372036854775808,,,,,0,24,0.0,47,275268920167432,34,22.299999237060547,18053.12109375,0.3341241180896759,0,0.0,0.0,1.57542003E9,,,,0,17.899999618530273,1,-5.199999809265137,1.57542003E9
Raw,178065251,0,,,-9223372036854775808,,,,,0,25,0.0,47,275268921594760,54,18.100000381469727,18381.31640625,0.5827165842056274,0,0.0,0.0,1.57542003E9,,,,0,13.800000190734863,1,-5.199999809265137,1.57542003E9
Raw,178065252,0,,,-9223372036854775808,,,,,0,2,0.0,7215,275268913058834,23,27.100000381469727,18593.333984375,0.20474600791931152,0,0.0,0.0,1.57542003E9,,,,0,21.0,6,-5.199999809265137,1.57542003E9
Raw,178065252,0,,,-9223372036854775808,,,,,0,8,0.0,7215,275268912821664,29,24.100000381469727,17902.525390625,0.27411526441574097,0,0.0,0.0,1.57542003E9,,,,0,17.799999237060547,6,-5.199999809265137,1.57542003E9
Raw,178065252,0,,,-9223372036854775808,,,,,0,25,0.0,7215,275268909914067,30,23.700000762939453,18637.15234375,0.28596755862236023,0,0.0,0.0,1.57542003E9,,,,0,17.5,6,-5.199999809265137,1.57542003E9
Raw,178065253,0,,,-9223372036854775808,,,,,0,10,0.0,815,275254876263407,31,23.600000381469727,18610.9765625,0.28905072808265686,0,0.0,0.0,1.56109798E9,,,,0,19.5,5,-5.199999809265137,1.56109798E9
Raw,178065253,0,,,-9223372036854775808,,,,,0,7,0.0,815,275254874060173,32,23.0,18601.234375,0.3086419701576233,0,0.0,0.0,1.56109798E9,,,,0,16.399999618530273,5,-5.199999809265137,1.56109798E9
Raw,178065253,0,,,-9223372036854775808,,,,,0,9,0.0,815,275254879310379,39,20.899999618530273,18258.923828125,0.3955540060997009,0,0.0,0.0,1.56109798E9,,,,0,17.899999618530273,5,-5.199999809265137,1.56109798E9
Raw,178065254,0,,,-9223372036854775808,,,,,0,22,0.0,815,275254923576522,41,20.600000381469727,18393.736328125,0.4109138548374176,0,0.0,0.0,1.56109798E9,,,,0,15.600000381469727,5,-5.199999809265137,1.56109798E9
NMEA,$GPRMC,042731.000,V,,,,,,,160920,,,N*42,1600230449000
NMEA,$PSAMCLK,2123,27526900,8,9671689,738005,275269000*76,1600230449000
NMEA,$GPGGA,042731.000,,,,,0,,,,,,,,*7B,1600230450000
Raw,178065274,0,,,-9223372036854775808,,,,,0,12,0.0,47,275268925991473,27,24.899999618530273,18626.73046875,0.252518892288208,0,0.0,0.0,1.57542003E9,,,,0,21.0,1,-5.199999809265137,1.57542003E9
Raw,178065274,0,,,-9223372036854775808,,,,,0,24,0.0,47,275268920167432,34,22.299999237060547,18053.12109375,0.3341241180896759,0,0.0,0.0,1.57542003E9,,,,0,17.899999618530273,1,-5.199999809265137,1.57542003E9
Raw,178065277,0,,,-9223372036854775808,,,,,0,25,0.0,47,275268921594760,55,18.0,18381.31640625,0.5917159914970398,0,0.0,0.0,1.57542003E9,,,,0,13.800000190734863,1,-5.199999809265137,1.57542003E9
Raw,178065277,0,,,-9223372036854775808,,,,,0,2,0.0,7215,275268913058834,23,27.100000381469727,18593.333984375,0.20474600791931152,0,0.0,0.0,1.57542003E9,,,,0,21.0,6,-5.199999809265137,1.57542003E9
Raw,178065277,0,,,-9223372036854775808,,,,,0,8,0.0,7215,275268912821664,29,24.100000381469727,17902.525390625,0.27411526441574097,0,0.0,0.0,1.57542003E9,,,,0,17.799999237060547,6,-5.199999809265137,1.57542003E9
Raw,178065277,0,,,-9223372036854775808,,,,,0,25,0.0,7215,275268909914067,30,23.700000762939453,18637.15234375,0.28596755862236023,0,0.0,0.0,1.57542003E9,,,,0,17.5,6,-5.199999809265137,1.57542003E9
Raw,178065278,0,,,-9223372036854775808,,,,,0,10,0.0,815,275254876263407,31,23.600000381469727,18610.9765625,0.28905072808265686,0,0.0,0.0,1.56109798E9,,,,0,19.5,5,-5.199999809265137,1.56109798E9
Raw,178065278,0,,,-9223372036854775808,,,,,0,7,0.0,815,275254874060173,32,23.0,18601.234375,0.3086419701576233,0,0.0,0.0,1.56109798E9,,,,0,16.399999618530273,5,-5.199999809265137,1.56109798E9
Raw,178065278,0,,,-9223372036854775808,,,,,0,9,0.0,815,275254879310379,39,20.899999618530273,18258.923828125,0.3955540060997009,0,0.0,0.0,1.56109798E9,,,,0,17.899999618530273,5,-5.199999809265137,1.56109798E9
Raw,178065278,0,,,-9223372036854775808,,,,,0,22,0.0,815,275254923576522,41,20.600000381469727,18393.736328125,0.4109138548374176,0,0.0,0.0,1.56109798E9,,,,0,15.600000381469727,5,-5.199999809265137,1.56109798E9
NMEA,$GPGLL,0120.9357,N,10342.5145,E,042731.000,V,N*48,1600230450000
NMEA,$GPVTG,229.8,T,,M,0.0,N,0.0,K,N*03,1600230450000
NMEA,$GPGSV,1,1,03,12,39,234,25,24,19,195,22,25,23,271,18*49,1600230450000
NMEA,$GAGSV,1,1,03,102,27,223,27,108,08,217,24,125,19,169,24*6E,1600230450000
NMEA,$BDGSV,1,1,04,207,36,175,23,209,64,172,21,210,46,208,24,222,50,271,21*6D,1600230450000
NMEA,$GPRMC,042731.000,V,,,,,,,160920,,,N*42,1600230450000
NMEA,$PSAMCLK,2123,27526900,8,9671689,738005,275269000*76,1600230450000
Nav,2,1537,0,10,2,-98,-62,17,2,-35,-83,-99,-77,79,-15,111,55,0,-128,-39,-24,0,-64,-48,-84,42,-104,2,0,-125,122,-86,-77,0,64,63,46
Nav,2,1537,0,10,2,-98,-62,17,2,-35,-83,-99,-77,79,-15,111,55,0,-128,-39,-24,0,-64,-48,-84,42,-104,2,0,-125,122,-86,-77,0,64,63,46
NMEA,$GPGGA,042732.000,,,,,0,,,,,,,,*78,1600230450000
NMEA,$GPGLL,0120.9349,N,10342.5130,E,042732.000,V,N*46,1600230450000
NMEA,$GPVTG,224.8,T,,M,1.9,N,3.6,K,N*03,1600230450000
NMEA,$GPGSV,1,1,03,12,39,234,25,24,19,195,22,25,23,271,18*49,1600230450000
Nav,10,1281,0,15,1,61,28,-110,56,63,63,120,13,-54,122,1,58,-4,-79,7,6,5,-18,35,34,55,-78,61,1,-107,-50,-94,14,-123,122,32,0,117,31,27,11,-91,62,39,59
Raw,178066262,0,,,-9223372036854775808,,,,,0,12,0.0,47,275269925990781,27,24.899999618530273,18627.41796875,0.252518892288208,0,0.0,0.0,1.57542003E9,,,,0,20.799999237060547,1,-5.199999809265137,1.57542003E9
Raw,178066263,0,,,-9223372036854775808,,,,,0,24,0.0,47,275269920168663,34,22.299999237060547,18051.966796875,0.3341241180896759,0,0.0,0.0,1.57542003E9,,,,0,16.700000762939453,1,-5.199999809265137,1.57542003E9
Raw,178066263,0,,,-9223372036854775808,,,,,0,25,0.0,47,275269921594829,55,18.0,18381.60546875,0.5917159914970398,0,0.0,0.0,1.57542003E9,,,,0,15.800000190734863,1,-5.199999809265137,1.57542003E9
Raw,178066263,0,,,-9223372036854775808,,,,,0,2,0.0,7215,275269913058200,23,27.200000762939453,18593.13671875,0.2029055953025818,0,0.0,0.0,1.57542003E9,,,,0,20.799999237060547,6,-5.199999809265137,1.57542003E9
Raw,178066263,0,,,-9223372036854775808,,,,,0,8,0.0,7215,275269912823324,29,24.100000381469727,17902.01953125,0.27411526441574097,0,0.0,0.0,1.57542003E9,,,,0,18.100000381469727,6,-5.199999809265137,1.57542003E9
Raw,178066264,0,,,-9223372036854775808,,,,,0,25,0.0,7215,275269909913275,30,23.799999237060547,18635.744140625,0.28293347358703613,0,0.0,0.0,1.57542003E9,,,,0,17.799999237060547,6,-5.199999809265137,1.57542003E9
Raw,178066264,0,,,-9223372036854775808,,,,,0,10,0.0,815,275255876262714,30,23.700000762939453,18612.220703125,0.28596755862236023,0,0.0,0.0,1.56109798E9,,,,0,18.5,5,-5.199999809265137,1.56109798E9
Raw,178066264,0,,,-9223372036854775808,,,,,0,7,0.0,815,275255874059524,32,23.0,18600.728515625,0.3086419701576233,0,0.0,0.0,1.56109798E9,,,,0,18.299999237060547,5,-5.199999809265137,1.56109798E9
Raw,178066265,0,,,-9223372036854775808,,,,,0,22,0.0,815,275255923576575,41,20.600000381469727,18394.40625,0.4109138548374176,0,0.0,0.0,1.56109798E9,,,,0,18.700000762939453,5,-5.199999809265137,1.56109798E9
NMEA,$GAGSV,1,1,03,102,27,223,27,108,08,217,24,125,19,169,24*6E,1600230450000
NMEA,$BDGSV,1,1,04,207,36,175,23,209,64,172,19,210,46,208,24,222,50,271,21*66,1600230450000
Nav,10,1281,0,15,1,61,28,-110,56,63,63,120,13,-54,122,1,58,-4,-79,7,6,5,-18,35,34,55,-78,61,1,-107,-50,-94,14,-123,122,32,0,117,31,27,11,-91,62,39,59
NMEA,$GPRMC,042732.000,V,,,,,,,160920,,,N*41,1600230450000
Nav,7,1281,0,11,6,63,-22,108,58,-97,46,-86,13,55,57,27,35,-121,-125,35,49,78,-25,-5,60,37,-64,84,10,7,40,-43,26,29,31,84,12,126,120,-117,8,-101,11,-100,16
NMEA,$PSAMCLK,2123,27527000,8,9671642,799396,275270000*73,1600230450000
Nav,7,1281,0,11,6,63,-22,108,58,-97,46,-86,13,55,57,27,35,-121,-125,35,49,78,-25,-5,60,37,-64,84,10,7,40,-43,26,29,31,84,12,126,120,-117,8,-101,11,-100,16
NMEA,$GPGGA,042732.000,,,,,0,,,,,,,,*78,1600230451000
Raw,178066285,0,,,-9223372036854775808,,,,,0,12,0.0,47,275269925990781,27,24.899999618530273,18627.41796875,0.252518892288208,0,0.0,0.0,1.57542003E9,,,,0,20.799999237060547,1,-5.199999809265137,1.57542003E9
Raw,178066285,0,,,-9223372036854775808,,,,,0,24,0.0,47,275269920168663,34,22.299999237060547,18051.966796875,0.3341241180896759,0,0.0,0.0,1.57542003E9,,,,0,16.700000762939453,1,-5.199999809265137,1.57542003E9
Raw,178066285,0,,,-9223372036854775808,,,,,0,25,0.0,47,275269921594829,55,17.899999618530273,18381.60546875,0.6009254455566406,0,0.0,0.0,1.57542003E9,,,,0,15.800000190734863,1,-5.199999809265137,1.57542003E9
Raw,178066285,0,,,-9223372036854775808,,,,,0,2,0.0,7215,275269913058200,23,27.200000762939453,18593.13671875,0.2029055953025818,0,0.0,0.0,1.57542003E9,,,,0,20.799999237060547,6,-5.199999809265137,1.57542003E9
Raw,178066286,0,,,-9223372036854775808,,,,,0,8,0.0,7215,275269912823324,29,24.100000381469727,17902.01953125,0.27411526441574097,0,0.0,0.0,1.57542003E9,,,,0,18.100000381469727,6,-5.199999809265137,1.57542003E9
Raw,178066286,0,,,-9223372036854775808,,,,,0,25,0.0,7215,275269909913275,30,23.799999237060547,18635.744140625,0.28293347358703613,0,0.0,0.0,1.57542003E9,,,,0,17.799999237060547,6,-5.199999809265137,1.57542003E9
Raw,178066286,0,,,-9223372036854775808,,,,,0,10,0.0,815,275255876262714,30,23.700000762939453,18612.220703125,0.28596755862236023,0,0.0,0.0,1.56109798E9,,,,0,18.5,5,-5.199999809265137,1.56109798E9
Raw,178066286,0,,,-9223372036854775808,,,,,0,7,0.0,815,275255874059524,32,23.0,18600.728515625,0.3086419701576233,0,0.0,0.0,1.56109798E9,,,,0,18.299999237060547,5,-5.199999809265137,1.56109798E9
Raw,178066287,0,,,-9223372036854775808,,,,,0,22,0.0,815,275255923576575,41,20.600000381469727,18394.40625,0.4109138548374176,0,0.0,0.0,1.56109798E9,,,,0,18.700000762939453,5,-5.199999809265137,1.56109798E9
NMEA,$GPGLL,0120.9349,N,10342.5130,E,042732.000,V,N*46,1600230451000
NMEA,$GPVTG,224.8,T,,M,1.9,N,3.6,K,N*03,1600230451000
NMEA,$GPGSV,1,1,03,12,39,234,25,24,19,195,22,25,23,271,18*49,1600230451000
NMEA,$GAGSV,1,1,03,102,27,223,27,108,08,217,24,125,19,169,24*6E,1600230451000
NMEA,$BDGSV,1,1,04,207,36,175,23,209,64,172,18,210,46,208,24,222,50,271,21*67,1600230451000
NMEA,$GPRMC,042732.000,V,,,,,,,160920,,,N*41,1600230451000
NMEA,$PSAMCLK,2123,27527000,8,9671642,799396,275270000*73,1600230451000
Nav,25,1537,0,10,60,-43,96,17,60,-8,6,41,-71,-117,-68,82,-24,0,-128,2,113,-13,-31,18,-80,-5,-119,57,-99,84,27,-25,-101,0,-64,0,-33
Nav,25,1537,0,10,60,-43,96,17,60,-8,6,41,-71,-117,-68,82,-24,0,-128,2,113,-13,-31,18,-80,-5,-119,57,-99,84,27,-25,-101,0,-64,0,-33
NMEA,$GPGGA,042733.000,,,,,0,,,,,,,,*79,1600230451000
NMEA,$GPGLL,0120.9331,N,10342.5130,E,042733.000,V,N*48,1600230451000
Raw,178067251,0,,,-9223372036854775808,,,,,0,12,0.0,47,275270925990013,27,24.899999618530273,18627.01171875,0.252518892288208,0,0.0,0.0,1.57542003E9,,,,0,21.700000762939453,1,-5.199999809265137,1.57542003E9
Raw,178067251,0,,,-9223372036854775808,,,,,0,24,0.0,47,275270920169846,34,22.299999237060547,18051.611328125,0.3341241180896759,0,0.0,0.0,1.57542003E9,,,,0,15.699999809265137,1,-5.199999809265137,1.57542003E9
Raw,178067251,0,,,-9223372036854775808,,,,,0,25,0.0,47,275270921594948,55,17.899999618530273,18381.634765625,0.6009254455566406,0,0.0,0.0,1.57542003E9,,,,0,14.699999809265137,1,-5.199999809265137,1.57542003E9
Raw,178067252,0,,,-9223372036854775808,,,,,0,2,0.0,7215,275270913057590,23,27.200000762939453,18592.853515625,0.2029055953025818,0,0.0,0.0,1.57542003E9,,,,0,21.100000381469727,6,-5.199999809265137,1.57542003E9
Raw,178067252,0,,,-9223372036854775808,,,,,0,8,0.0,7215,275270912825043,29,24.200000762939453,17902.43359375,0.2712673544883728,0,0.0,0.0,1.57542003E9,,,,0,17.899999618530273,6,-5.199999809265137,1.57542003E9
Raw,178067252,0,,,-9223372036854775808,,,,,0,25,0.0,7215,275270909912530,30,23.899999618530273,18635.427734375,0.2799473702907562,0,0.0,0.0,1.57542003E9,,,,0,18.5,6,-5.199999809265137,1.57542003E9
Raw,178067252,0,,,-9223372036854775808,,,,,0,10,0.0,815,275256876261989,30,23.700000762939453,18612.375,0.28596755862236023,0,0.0,0.0,1.56109798E9,,,,0,19.399999618530273,5,-5.199999809265137,1.56109798E9
Raw,178067252,0,,,-9223372036854775808,,,,,0,7,0.0,815,275256874058864,32,23.0,18599.974609375,0.3086419701576233,0,0.0,0.0,1.56109798E9,,,,0,18.0,5,-5.199999809265137,1.56109798E9
Raw,178067253,0,,,-9223372036854775808,,,,,0,22,0.0,815,275256923576655,40,20.700000762939453,18394.349609375,0.40569597482681274,0,0.0,0.0,1.56109798E9,,,,0,15.5,5,-5.199999809265137,1.56109798E9
Raw,178067271,0,,,-9223372036854775808,,,,,0,12,0.0,47,275270925990013,27,24.899999618530273,18627.01171875,0.252518892288208,0,0.0,0.0,1.57542003E9,,,,0,21.700000762939453,1,-5.199999809265137,1.57542003E9
Raw,178067272,0,,,-9223372036854775808,,,,,0,24,0.0,47,275270920169846,34,22.299999237060547,18051.611328125,0.3341241180896759,0,0.0,0.0,1.57542003E9,,,,0,15.699999809265137,1,-5.199999809265137,1.57542003E9
Raw,178067273,0,,,-9223372036854775808,,,,,0,25,0.0,47,275270921594948,55,17.899999618530273,18381.634765625,0.6009254455566406,0,0.0,0.0,1.57542003E9,,,,0,14.699999809265137,1,-5.199999809265137,1.57542003E9
Raw,178067273,0,,,-9223372036854775808,,,,,0,2,0.0,7215,275270913057590,23,27.200000762939453,18592.853515625,0.2029055953025818,0,0.0,0.0,1.57542003E9,,,,0,21.100000381469727,6,-5.199999809265137,1.57542003E9
Raw,178067274,0,,,-9223372036854775808,,,,,0,8,0.0,7215,275270912825043,29,24.200000762939453,17902.43359375,0.2712673544883728,0,0.0,0.0,1.57542003E9,,,,0,17.899999618530273,6,-5.199999809265137,1.57542003E9
Raw,178067274,0,,,-9223372036854775808,,,,,0,25,0.0,7215,275270909912530,30,23.899999618530273,18635.427734375,0.2799473702907562,0,0.0,0.0,1.57542003E9,,,,0,18.5,6,-5.199999809265137,1.57542003E9
Raw,178067274,0,,,-9223372036854775808,,,,,0,10,0.0,815,275256876261989,30,23.700000762939453,18612.375,0.28596755862236023,0,0.0,0.0,1.56109798E9,,,,0,19.399999618530273,5,-5.199999809265137,1.56109798E9
Raw,178067274,0,,,-9223372036854775808,,,,,0,7,0.0,815,275256874058864,32,23.0,18599.974609375,0.3086419701576233,0,0.0,0.0,1.56109798E9,,,,0,18.0,5,-5.199999809265137,1.56109798E9
Raw,178067274,0,,,-9223372036854775808,,,,,0,22,0.0,815,275256923576655,40,20.700000762939453,18394.349609375,0.40569597482681274,0,0.0,0.0,1.56109798E9,,,,0,15.5,5,-5.199999809265137,1.56109798E9
NMEA,$GPVTG,207.9,T,,M,2.1,N,3.9,K,N*07,1600230451000
NMEA,$GPGSV,1,1,03,12,39,234,25,24,19,195,22,25,23,271,18*49,1600230451000
NMEA,$GAGSV,1,1,03,102,27,223,27,108,08,217,24,125,19,169,24*6E,1600230451000
NMEA,$BDGSV,1,1,04,207,36,175,23,209,64,172,16,210,46,208,24,222,50,271,21*69,1600230451000
NMEA,$GPRMC,042733.000,V,,,,,,,160920,,,N*40,1600230451000
NMEA,$PSAMCLK,2123,27527100,8,9671546,860794,275271000*7B,1600230451000
NMEA,$GPGGA,042733.000,,,,,0,,,,,,,,*79,1600230452000
NMEA,$GPGLL,0120.9331,N,10342.5130,E,042733.000,V,N*48,1600230452000
NMEA,$GPVTG,207.9,T,,M,2.1,N,3.9,K,N*07,1600230452000
NMEA,$GPGSV,1,1,03,12,39,234,25,24,19,195,22,25,23,271,18*49,1600230452000
NMEA,$GAGSV,1,1,03,102,27,223,27,108,08,217,24,125,19,169,24*6E,1600230452000
NMEA,$BDGSV,1,1,04,207,36,175,23,209,64,172,15,210,46,208,24,222,50,271,21*6A,1600230452000
NMEA,$GPRMC,042733.000,V,,,,,,,160920,,,N*40,1600230452000
NMEA,$PSAMCLK,2123,27527100,8,9671546,860794,275271000*7B,1600230452000
Nav,2,1537,0,10,62,-110,68,-99,62,-101,89,95,-98,0,-86,104,-108,0,-128,-35,7,2,77,-18,-113,9,-123,68,-48,-81,126,126,15,0,64,-106,8
Nav,2,1537,0,10,62,-110,68,-99,62,-101,89,95,-98,0,-86,104,-108,0,-128,-35,7,2,77,-18,-113,9,-123,68,-48,-81,126,126,15,0,64,-106,8
Nav,25,1537,0,10,60,-43,96,17,60,-8,6,41,-71,-117,-68,82,-24,0,-128,2,113,-111,63,67,-21,5,-14,-35,-60,-27,79,35,70,0,64,-96,67
Nav,25,1537,0,10,60,-43,96,17,60,-8,6,41,-71,-117,-68,82,-24,0,-128,2,113,-111,63,67,-21,5,-14,-35,-60,-27,79,35,70,0,64,-96,67
NMEA,$GPGGA,042734.000,,,,,0,,,,,,,,*7E,1600230452000
NMEA,$GPGLL,0120.9324,N,10342.5138,E,042734.000,V,N*43,1600230452000
NMEA,$GPVTG,193.3,T,,M,2.6,N,4.9,K,N*03,1600230452000
NMEA,$GPGSV,1,1,03,12,39,234,25,24,19,195,22,25,23,271,18*49,1600230452000
Raw,178068234,0,,,-9223372036854775808,,,,,0,12,0.0,47,275271925989277,27,24.899999618530273,18625.580078125,0.252518892288208,0,0.0,0.0,1.57542003E9,,,,0,21.600000381469727,1,-5.199999809265137,1.57542003E9
Raw,178068235,0,,,-9223372036854775808,,,,,0,24,0.0,47,275271920171063,34,22.299999237060547,18052.396484375,0.3341241180896759,0,0.0,0.0,1.57542003E9,,,,0,16.100000381469727,1,-5.199999809265137,1.57542003E9
Raw,178068235,0,,,-9223372036854775808,,,,,0,25,0.0,47,275271921594997,55,17.899999618530273,18381.904296875,0.6009254455566406,0,0.0,0.0,1.57542003E9,,,,0,15.699999809265137,1,-5.199999809265137,1.57542003E9
Raw,178068236,0,,,-9223372036854775808,,,,,0,2,0.0,7215,275271913056975,23,27.299999237060547,18594.029296875,0.20108991861343384,0,0.0,0.0,1.57542003E9,,,,0,21.299999237060547,6,-5.199999809265137,1.57542003E9
Raw,178068236,0,,,-9223372036854775808,,,,,0,8,0.0,7215,275271912826656,29,24.200000762939453,17901.984375,0.2712673544883728,0,0.0,0.0,1.57542003E9,,,,0,17.600000381469727,6,-5.199999809265137,1.57542003E9
Raw,178068236,0,,,-9223372036854775808,,,,,0,25,0.0,7215,275271909911754,30,24.0,18636.302734375,0.2770083248615265,0,0.0,0.0,1.57542003E9,,,,0,18.399999618530273,6,-5.199999809265137,1.57542003E9
Raw,178068236,0,,,-9223372036854775808,,,,,0,10,0.0,815,275257876261321,30,23.799999237060547,18612.212890625,0.28293347358703613,0,0.0,0.0,1.56109798E9,,,,0,17.899999618530273,5,-5.199999809265137,1.56109798E9
Raw,178068237,0,,,-9223372036854775808,,,,,0,7,0.0,815,275257874058250,33,22.899999618530273,18599.921875,0.3121001422405243,0,0.0,0.0,1.56109798E9,,,,0,18.299999237060547,5,-5.199999809265137,1.56109798E9
Raw,178068237,0,,,-9223372036854775808,,,,,0,22,0.0,815,275257923576686,40,20.700000762939453,18394.712890625,0.40569597482681274,0,0.0,0.0,1.56109798E9,,,,0,18.0,5,-5.199999809265137,1.56109798E9
Raw,178068262,0,,,-9223372036854775808,,,,,0,12,0.0,47,275271925989277,27,24.899999618530273,18625.580078125,0.252518892288208,0,0.0,0.0,1.57542003E9,,,,0,21.600000381469727,1,-5.199999809265137,1.57542003E9
Raw,178068263,0,,,-9223372036854775808,,,,,0,24,0.0,47,275271920171063,34,22.299999237060547,18052.396484375,0.3341241180896759,0,0.0,0.0,1.57542003E9,,,,0,16.100000381469727,1,-5.199999809265137,1.57542003E9
Raw,178068263,0,,,-9223372036854775808,,,,,0,25,0.0,47,275271921594997,55,17.899999618530273,18381.904296875,0.6009254455566406,0,0.0,0.0,1.57542003E9,,,,0,15.699999809265137,1,-5.199999809265137,1.57542003E9
Raw,178068263,0,,,-9223372036854775808,,,,,0,2,0.0,7215,275271913056975,23,27.299999237060547,18594.029296875,0.20108991861343384,0,0.0,0.0,1.57542003E9,,,,0,21.299999237060547,6,-5.199999809265137,1.57542003E9
Raw,178068263,0,,,-9223372036854775808,,,,,0,8,0.0,7215,275271912826656,29,24.200000762939453,17901.984375,0.2712673544883728,0,0.0,0.0,1.57542003E9,,,,0,17.600000381469727,6,-5.199999809265137,1.57542003E9
Raw,178068264,0,,,-9223372036854775808,,,,,0,25,0.0,7215,275271909911754,30,24.0,18636.302734375,0.2770083248615265,0,0.0,0.0,1.57542003E9,,,,0,18.399999618530273,6,-5.199999809265137,1.57542003E9
Raw,178068264,0,,,-9223372036854775808,,,,,0,10,0.0,815,275257876261321,30,23.799999237060547,18612.212890625,0.28293347358703613,0,0.0,0.0,1.56109798E9,,,,0,17.899999618530273,5,-5.199999809265137,1.56109798E9
Raw,178068264,0,,,-9223372036854775808,,,,,0,7,0.0,815,275257874058250,33,22.899999618530273,18599.921875,0.3121001422405243,0,0.0,0.0,1.56109798E9,,,,0,18.299999237060547,5,-5.199999809265137,1.56109798E9
Raw,178068264,0,,,-9223372036854775808,,,,,0,22,0.0,815,275257923576686,40,20.700000762939453,18394.712890625,0.40569597482681274,0,0.0,0.0,1.56109798E9,,,,0,18.0,5,-5.199999809265137,1.56109798E9
NMEA,$GAGSV,1,1,03,102,27,223,27,108,08,217,24,125,19,169,24*6E,1600230452000
NMEA,$BDGSV,1,1,04,207,36,175,23,209,64,172,14,210,46,208,24,222,50,271,21*6B,1600230452000
NMEA,$GPRMC,042734.000,V,,,,,,,160920,,,N*47,1600230452000
NMEA,$PSAMCLK,2123,27527200,7,9671514,922180,275272000*77,1600230452000
NMEA,$GPGGA,042734.000,,,,,0,,,,,,,,*7E,1600230453000
NMEA,$GPGLL,0120.9324,N,10342.5138,E,042734.000,V,N*43,1600230453000
NMEA,$GPVTG,193.3,T,,M,2.6,N,4.9,K,N*03,1600230453000
NMEA,$GPGSV,1,1,03,12,39,234,25,24,19,195,22,25,23,271,18*49,1600230453000
NMEA,$GAGSV,1,1,03,102,27,223,27,108,08,217,24,125,19,169,24*6E,1600230453000
NMEA,$BDGSV,1,1,04,207,36,175,23,209,64,172,13,210,46,208,24,222,50,271,21*6C,1600230453000
NMEA,$GPRMC,042734.000,V,,,,,,,160920,,,N*47,1600230453000
NMEA,$PSAMCLK,2123,27527200,7,9671514,922180,275272000*77,1600230453000
Nav,2,1537,0,10,62,-110,68,-99,62,-101,89,95,-98,0,-86,104,-108,0,-128,-35,7,120,7,15,-45,-84,-7,-103,-25,64,95,43,-118,0,0,88,-16
Nav,2,1537,0,10,62,-110,68,-99,62,-101,89,95,-98,0,-86,104,-108,0,-128,-35,7,120,7,15,-45,-84,-7,-103,-25,64,95,43,-118,0,0,88,-16
NMEA,$GPGGA,042735.000,0120.9312,N,10342.5139,E,1,08,3.2,42.3,M,3.2,M,,*56,1600230453000
NMEA,$GPGLL,0120.9312,N,10342.5139,E,042735.000,A,A*5E,1600230453000
NMEA,$GPVTG,185.0,T,,M,2.9,N,5.3,K,A*0C,1600230453000
NMEA,$GPGSV,1,1,03,12,39,234,25,24,19,195,22,25,23,271,18*49,1600230453000
NMEA,$GAGSV,1,1,03,102,27,223,28,108,08,217,24,125,19,169,24*61,1600230453000
NMEA,$BDGSV,1,1,04,207,36,175,23,209,64,172,13,210,46,208,24,222,50,271,21*6C,1600230453000
Raw,178069221,25211731854,18,0.0,-1284265647788268032,0.0,10.137636184692383,61390.67578125,0.0,0,12,0.0,47,275272925988543,27,25.0,18624.5390625,0.25,0,0.0,0.0,1.57542003E9,,,,0,20.0,1,-5.199999809265137,1.57542003E9
Raw,178069222,25211731854,18,0.0,-1284265647788268032,0.0,10.137636184692383,61390.67578125,0.0,0,24,0.0,47,275272920172213,35,22.200000762939453,18052.978515625,0.33802053332328796,0,0.0,0.0,1.57542003E9,,,,0,18.399999618530273,1,-5.199999809265137,1.57542003E9
Raw,178069222,25211731854,18,0.0,-1284265647788268032,0.0,10.137636184692383,61390.67578125,0.0,0,25,0.0,47,275272921595112,55,18.0,18381.826171875,0.5917159914970398,0,0.0,0.0,1.57542003E9,,,,0,14.5,1,-5.199999809265137,1.57542003E9
Raw,178069222,25211731854,18,0.0,-1284265647788268032,0.0,10.137636184692383,61390.67578125,0.0,0,2,0.0,7215,275272913056362,22,27.5,18593.50390625,0.1975308656692505,0,0.0,0.0,1.57542003E9,,,,0,22.299999237060547,6,-5.199999809265137,1.57542003E9
Raw,178069222,25211731854,18,0.0,-1284265647788268032,0.0,10.137636184692383,61390.67578125,0.0,0,8,0.0,7215,275272912828393,29,24.299999237060547,17902.169921875,0.2684636116027832,0,0.0,0.0,1.57542003E9,,,,0,18.100000381469727,6,-5.199999809265137,1.57542003E9
Raw,178069223,25211731854,18,0.0,-1284265647788268032,0.0,10.137636184692383,61390.67578125,0.0,0,25,0.0,7215,275272909910976,29,24.100000381469727,18636.775390625,0.27411526441574097,0,0.0,0.0,1.57542003E9,,,,0,18.0,6,-5.199999809265137,1.57542003E9
