# 
# Header Description:
# 
# Version: v2.0.0.1 Platform: 9 Manufacturer: samsung Model: SM-A507FN
# 
# Raw,ElapsedRealtimeMillis,TimeNanos,LeapSecond,TimeUncertaintyNanos,FullBiasNanos,BiasNanos,BiasUncertaintyNanos,DriftNanosPerSecond,DriftUncertaintyNanosPerSecond,HardwareClockDiscontinuityCount,Svid,TimeOffsetNanos,State,ReceivedSvTimeNanos,ReceivedSvTimeUncertaintyNanos,Cn0DbHz,PseudorangeRateMetersPerSecond,PseudorangeRateUncertaintyMetersPerSecond,AccumulatedDeltaRangeState,AccumulatedDeltaRangeMeters,AccumulatedDeltaRangeUncertaintyMeters,CarrierFrequencyHz,CarrierCycles,CarrierPhase,CarrierPhaseUncertainty,MultipathIndicator,SnrInDb,ConstellationType,AgcDb,CarrierFrequencyHz
# 
# Fix,Provider,Latitude,Longitude,Altitude,Speed,Accuracy,(UTC)TimeInMs
# 
# Nav,Svid,Type,Status,MessageId,Sub-messageId,Data(Bytes)
# 
Nav,3,1537,0,12,5,118,107,-67,69,107,-39,65,-61,2,-125,-111,-65,0,64,-82,53,121,27,63,-88,-50,-68,50,48,-19,30,-93,-4,0,-64,-115,-6
Nav,3,1537,0,12,5,118,107,-67,69,107,-39,65,-61,2,-125,-111,-65,0,64,-82,53,121,27,63,-88,-50,-68,50,48,-19,30,-93,-4,0,-64,-115,-6
Raw,179547221,1503302488636,18,0.0,-1284265647697511424,0.0,50.034610748291016,61400.57421875,0.0,0,12,0.0,47,276750924767494,19,29.700000762939453,18674.57421875,0.16391023993492126,0,0.0,0.0,1.57542003E9,,,,0,27.600000381469727,1,-3.9000000953674316,1.57542003E9
Raw,179547221,1503302488636,18,0.0,-1284265647697511424,0.0,50.034610748291016,61400.57421875,0.0,0,24,0.0,47,276750922039928,22,28.0,18002.9140625,0.18903592228889465,0,0.0,0.0,1.57542003E9,,,,0,27.0,1,-3.9000000953674316,1.57542003E9
Raw,179547221,1503302488636,18,0.0,-1284265647697511424,0.0,50.034610748291016,61400.57421875,0.0,0,2,0.0,7215,276750912172252,15,33.79999923706055,18573.197265625,0.12056328356266022,0,0.0,0.0,1.57542003E9,,,,0,23.899999618530273,6,-3.9000000953674316,1.57542003E9
Raw,179547222,1503302488636,18,0.0,-1284265647697511424,0.0,50.034610748291016,61400.57421875,0.0,0,7,0.0,815,276736873134586,18,31.0,18583.935546875,0.14792899787425995,0,0.0,0.0,1.56109798E9,,,,0,24.399999618530273,5,-3.9000000953674316,1.56109798E9
Raw,179547222,1503302488636,18,0.0,-1284265647697511424,0.0,50.034610748291016,61400.57421875,0.0,0,10,0.0,815,276736875243773,23,27.100000381469727,18610.5546875,0.20474600791931152,0,0.0,0.0,1.56109798E9,,,,0,21.899999618530273,5,-3.9000000953674316,1.56109798E9
Raw,179547222,1503302488636,18,0.0,-1284265647697511424,0.0,50.034610748291016,61400.57421875,0.0,0,8,0.0,7215,276750915190317,24,26.600000381469727,17954.708984375,0.21433469653129578,0,0.0,0.0,1.57542003E9,,,,0,17.100000381469727,6,-3.9000000953674316,1.57542003E9
Raw,179547222,1503302488636,18,0.0,-1284265647697511424,0.0,50.034610748291016,61400.57421875,0.0,0,25,0.0,7215,276750908931417,35,22.0,18570.298828125,0.34602075815200806,0,0.0,0.0,1.57542003E9,,,,0,18.0,6,-3.9000000953674316,1.57542003E9
Raw,179547222,1503302488636,18,0.0,-1284265647697511424,0.0,50.034610748291016,61400.57421875,0.0,0,9,0.0,815,276736879934386,36,21.700000762939453,18300.310546875,0.3585642874240875,0,0.0,0.0,1.56109798E9,,,,0,15.0,5,-3.9000000953674316,1.56109798E9
Raw,179547222,1503302488636,18,0.0,-1284265647697511424,0.0,50.034610748291016,61400.57421875,0.0,0,3,0.0,7215,276750920685774,39,21.100000381469727,18299.80859375,0.3857875466346741,0,0.0,0.0,1.57542003E9,,,,0,14.300000190734863,6,-3.9000000953674316,1.57542003E9
Raw,179547290,1503302488636,18,0.0,-1284265647697511424,0.0,50.034610748291016,61400.57421875,0.0,0,12,0.0,47,276750924767494,19,29.700000762939453,18674.57421875,0.16391023993492126,0,0.0,0.0,1.57542003E9,,,,0,27.600000381469727,1,-3.9000000953674316,1.57542003E9
Raw,179547290,1503302488636,18,0.0,-1284265647697511424,0.0,50.034610748291016,61400.57421875,0.0,0,24,0.0,47,276750922039928,22,28.0,18002.9140625,0.18903592228889465,0,0.0,0.0,1.57542003E9,,,,0,27.0,1,-3.9000000953674316,1.57542003E9
Raw,179547290,1503302488636,18,0.0,-1284265647697511424,0.0,50.034610748291016,61400.57421875,0.0,0,2,0.0,7215,276750912172252,15,33.599998474121094,18573.197265625,0.1222553625702858,0,0.0,0.0,1.57542003E9,,,,0,23.899999618530273,6,-3.9000000953674316,1.57542003E9
Raw,179547290,1503302488636,18,0.0,-1284265647697511424,0.0,50.034610748291016,61400.57421875,0.0,0,7,0.0,815,276736873134586,18,30.899999618530273,18583.935546875,0.1490735113620758,0,0.0,0.0,1.56109798E9,,,,0,24.399999618530273,5,-3.9000000953674316,1.56109798E9
Raw,179547290,1503302488636,18,0.0,-1284265647697511424,0.0,50.034610748291016,61400.57421875,0.0,0,10,0.0,815,276736875243773,23,27.0,18610.5546875,0.20661157369613647,0,0.0,0.0,1.56109798E9,,,,0,21.899999618530273,5,-3.9000000953674316,1.56109798E9
Raw,179547290,1503302488636,18,0.0,-1284265647697511424,0.0,50.034610748291016,61400.57421875,0.0,0,8,0.0,7215,276750915190317,24,26.399999618530273,17954.708984375,0.21835967898368835,0,0.0,0.0,1.57542003E9,,,,0,17.100000381469727,6,-3.9000000953674316,1.57542003E9
Raw,179547290,1503302488636,18,0.0,-1284265647697511424,0.0,50.034610748291016,61400.57421875,0.0,0,25,0.0,7215,276750908931417,35,22.0,18570.298828125,0.34602075815200806,0,0.0,0.0,1.57542003E9,,,,0,18.0,6,-3.9000000953674316,1.57542003E9
Raw,179547291,1503302488636,18,0.0,-1284265647697511424,0.0,50.034610748291016,61400.57421875,0.0,0,9,0.0,815,276736879934386,37,21.600000381469727,18300.310546875,0.3628973662853241,0,0.0,0.0,1.56109798E9,,,,0,15.0,5,-3.9000000953674316,1.56109798E9
Raw,179547291,1503302488636,18,0.0,-1284265647697511424,0.0,50.034610748291016,61400.57421875,0.0,0,3,0.0,7215,276750920685774,39,21.0,18299.80859375,0.390625,0,0.0,0.0,1.57542003E9,,,,0,14.300000190734863,6,-3.9000000953674316,1.57542003E9
Fix,gps,1.348874,103.708464,24.000000,1.010000,24.000000,1600231933000
NMEA,$GPGGA,045213.000,0120.9324,N,10342.5078,E,1,08,3.8,20.3,M,3.2,M,,*5F,1600231932000
NMEA,$GPGLL,0120.9324,N,10342.5078,E,045213.000,A,A*59,1600231932000
NMEA,$GPVTG,56.6,T,,M,2.0,N,3.6,K,A*3F,1600231932000
NMEA,$GPGSV,1,1,04,12,35,221,30,15,77,237,18,24,24,186,28,25,23,258,21*7E,1600231932000
NMEA,$GLGSV,1,1,01,71,07,219,15*5B,1600231932000
NMEA,$GAGSV,1,1,04,102,24,214,34,103,65,245,21,108,15,221,27,125,16,161,22*66,1600231932000
NMEA,$BDGSV,1,1,03,207,33,174,31,209,70,177,22,210,41,205,27*67,1600231932000
NMEA,$GPGSA,A,3,12,24,,,,,,,,,,,5.2,3.8,3.4*3C,1600231932000
NMEA,$GAGSA,A,3,102,103,108,125,,,,,,,,,5.2,3.8,3.4*26,1600231932000
NMEA,$BDGSA,A,3,207,210,,,,,,,,,,,5.2,3.8,3.4*2E,1600231932000
NMEA,$GPRMC,045213.000,A,0120.9324,N,10342.5078,E,2.0,56.6,160920,,,A*55,1600231932000
NMEA,$PSAMCLK,2123,27675100,8,9673169,91740322,276751000*7C,1600231932000
NMEA,$GPGGA,045213.000,0120.9324,N,10342.5078,E,1,08,3.8,20.3,M,3.2,M,,*5F,1600231932000
NMEA,$GPGLL,0120.9324,N,10342.5078,E,045213.000,A,A*59,1600231932000
NMEA,$GPVTG,56.6,T,,M,2.0,N,3.6,K,A*3F,1600231932000
NMEA,$GPGSV,1,1,04,12,35,221,30,15,77,237,17,24,24,186,28,25,23,258,20*70,1600231932000
NMEA,$GLGSV,1,1,01,71,07,219,14*5A,1600231932000
NMEA,$GAGSV,1,1,04,102,24,214,34,103,65,245,21,108,15,221,26,125,16,161,22*67,1600231932000
NMEA,$BDGSV,1,1,03,207,33,174,31,209,70,177,22,210,41,205,27*67,1600231932000
NMEA,$GPGSA,A,3,12,24,,,,,,,,,,,5.2,3.8,3.4*3C,1600231932000
NMEA,$GAGSA,A,3,102,103,108,125,,,,,,,,,5.2,3.8,3.4*26,1600231932000
NMEA,$BDGSA,A,3,207,210,,,,,,,,,,,5.2,3.8,3.4*2E,1600231932000
NMEA,$GPRMC,045213.000,A,0120.9324,N,10342.5078,E,2.0,56.6,160920,,,A*55,1600231932000
NMEA,$PSAMCLK,2123,27675100,8,9673169,91740322,276751000*7C,1600231932000
Nav,25,1537,0,12,58,-11,-112,-13,122,-111,16,105,-44,18,28,112,115,0,0,96,27,-71,-87,-35,-52,53,76,62,1,34,110,-103,58,0,-64,20,-14
Nav,25,1537,0,12,58,-11,-112,-13,122,-111,16,105,-44,18,28,112,115,0,0,96,27,-71,-87,-35,-52,53,76,62,1,34,110,-103,58,0,-64,20,-14
Nav,3,1537,0,12,5,118,107,-67,69,107,-39,65,-61,2,-125,-111,-65,0,64,-82,53,-15,-89,4,-16,44,39,-22,38,43,-93,126,-73,0,-64,52,100
Nav,3,1537,0,12,5,118,107,-67,69,107,-39,65,-61,2,-125,-111,-65,0,64,-82,53,-15,-89,4,-16,44,39,-22,38,43,-93,126,-73,0,-64,52,100
Raw,179548273,1504302550036,18,0.0,-1284265647697449984,0.0,50.034610748291016,61400.76171875,0.0,0,12,0.0,47,276751924766603,19,30.0,18674.7890625,0.1599999964237213,0,0.0,0.0,1.57542003E9,,,,0,29.0,1,-3.9000000953674316,1.57542003E9
Raw,179548274,1504302550036,18,0.0,-1284265647697449984,0.0,50.034610748291016,61400.76171875,0.0,0,24,0.0,47,276751922041269,21,28.5,18002.451171875,0.18107740581035614,0,0.0,0.0,1.57542003E9,,,,0,24.5,1,-3.9000000953674316,1.57542003E9
Raw,179548274,1504302550036,18,0.0,-1284265647697449984,0.0,50.034610748291016,61400.76171875,0.0,0,2,0.0,7215,276751912171724,15,33.5,18573.267578125,0.12311480194330215,0,0.0,0.0,1.57542003E9,,,,0,24.399999618530273,6,-3.9000000953674316,1.57542003E9
Raw,179548274,1504302550036,18,0.0,-1284265647697449984,0.0,50.034610748291016,61400.76171875,0.0,0,7,0.0,815,276737873134000,18,30.899999618530273,18584.4296875,0.1490735113620758,0,0.0,0.0,1.56109798E9,,,,0,22.799999237060547,5,-3.9000000953674316,1.56109798E9
Raw,179548274,1504302550036,18,0.0,-1284265647697449984,0.0,50.034610748291016,61400.76171875,0.0,0,10,0.0,815,276737875243092,23,27.0,18611.068359375,0.20661157369613647,0,0.0,0.0,1.56109798E9,,,,0,19.700000762939453,5,-3.9000000953674316,1.56109798E9
Raw,179548274,1504302550036,18,0.0,-1284265647697449984,0.0,50.034610748291016,61400.76171875,0.0,0,8,0.0,7215,276751915191818,25,26.200000762939453,17955.880859375,0.2224990874528885,0,0.0,0.0,1.57542003E9,,,,0,16.200000762939453,6,-3.9000000953674316,1.57542003E9
Raw,179548274,1504302550036,18,0.0,-1284265647697449984,0.0,50.034610748291016,61400.76171875,0.0,0,25,0.0,7215,276751908930865,35,22.100000381469727,18571.85546875,0.3419855535030365,0,0.0,0.0,1.57542003E9,,,,0,17.100000381469727,6,-3.9000000953674316,1.57542003E9
Raw,179548275,1504302550036,18,0.0,-1284265647697449984,0.0,50.034610748291016,61400.76171875,0.0,0,9,0.0,815,276737879934775,37,21.5,18301.51953125,0.36730945110321045,0,0.0,0.0,1.56109798E9,,,,0,13.600000381469727,5,-3.9000000953674316,1.56109798E9
Raw,179548275,1504302550036,18,0.0,-1284265647697449984,0.0,50.034610748291016,61400.76171875,0.0,0,3,0.0,7215,276751920686103,39,20.899999618530273,18299.875,0.3955540060997009,0,0.0,0.0,1.57542003E9,,,,0,9.199999809265137,6,-3.9000000953674316,1.57542003E9
Nav,7,1281,0,116,4,-49,-53,111,7,-14,-45,15,28,48,8,-73,15,116,-1,-96,23,-112,0,72,42,96,0,-120,53,-49,-54,-25,34,-51,88,-26,4,19,66,-125,22,31,100,-105,2
Nav,7,1281,0,116,4,-49,-53,111,7,-14,-45,15,28,48,8,-73,15,116,-1,-96,23,-112,0,72,42,96,0,-120,53,-49,-54,-25,34,-51,88,-26,4,19,66,-125,22,31,100,-105,2
Nav,10,1281,0,116,4,-49,-53,111,7,-77,-45,15,28,61,-28,-78,47,124,0,53,26,-82,7,112,49,-15,-50,27,10,-105,12,57,27,103,-125,24,27,63,61,91,45,32,127,117,9
Nav,10,1281,0,116,4,-49,-53,111,7,-77,-45,15,28,61,-28,-78,47,124,0,53,26,-82,7,112,49,-15,-50,27,10,-105,12,57,27,103,-125,24,27,63,61,91,45,32,127,117,9
Nav,9,1281,0,116,3,-114,-77,-115,26,-14,-45,15,56,85,-113,78,46,-121,-53,-13,40,29,33,-58,24,52,114,113,63,6,-52,-73,41,-59,-24,64,47,76,-24,-80,54,15,16,-101,1
Nav,9,1281,0,116,3,-114,-77,-115,26,-14,-45,15,56,85,-113,78,46,-121,-53,-13,40,29,33,-58,24,52,114,113,63,6,-52,-73,41,-59,-24,64,47,76,-24,-80,54,15,16,-101,1
Raw,179548333,1504302550036,18,0.0,-1284265647697449984,0.0,50.034610748291016,61400.76171875,0.0,0,12,0.0,47,276751924766603,19,30.0,18674.7890625,0.1599999964237213,0,0.0,0.0,1.57542003E9,,,,0,29.0,1,-3.9000000953674316,1.57542003E9
Raw,179548334,1504302550036,18,0.0,-1284265647697449984,0.0,50.034610748291016,61400.76171875,0.0,0,24,0.0,47,276751922041269,21,28.5,18002.451171875,0.18107740581035614,0,0.0,0.0,1.57542003E9,,,,0,24.5,1,-3.9000000953674316,1.57542003E9
Raw,179548334,1504302550036,18,0.0,-1284265647697449984,0.0,50.034610748291016,61400.76171875,0.0,0,2,0.0,7215,276751912171724,15,33.400001525878906,18573.267578125,0.12398333847522736,0,0.0,0.0,1.57542003E9,,,,0,24.399999618530273,6,-3.9000000953674316,1.57542003E9
Raw,179548334,1504302550036,18,0.0,-1284265647697449984,0.0,50.034610748291016,61400.76171875,0.0,0,7,0.0,815,276737873134000,18,30.799999237060547,18584.4296875,0.15023136138916016,0,0.0,0.0,1.56109798E9,,,,0,22.799999237060547,5,-3.9000000953674316,1.56109798E9
Raw,179548335,1504302550036,18,0.0,-1284265647697449984,0.0,50.034610748291016,61400.76171875,0.0,0,10,0.0,815,276737875243092,23,27.0,18611.068359375,0.20661157369613647,0,0.0,0.0,1.56109798E9,,,,0,19.700000762939453,5,-3.9000000953674316,1.56109798E9
Raw,179548335,1504302550036,18,0.0,-1284265647697449984,0.0,50.034610748291016,61400.76171875,0.0,0,8,0.0,7215,276751915191818,25,26.0,17955.880859375,0.22675736248493195,0,0.0,0.0,1.57542003E9,,,,0,16.200000762939453,6,-3.9000000953674316,1.57542003E9
Raw,179548335,1504302550036,18,0.0,-1284265647697449984,0.0,50.034610748291016,61400.76171875,0.0,0,25,0.0,7215,276751908930865,35,22.100000381469727,18571.85546875,0.3419855535030365,0,0.0,0.0,1.57542003E9,,,,0,17.100000381469727,6,-3.9000000953674316,1.57542003E9
Raw,179548336,1504302550036,18,0.0,-1284265647697449984,0.0,50.034610748291016,61400.76171875,0.0,0,9,0.0,815,276737879934775,37,21.399999618530273,18301.51953125,0.37180250883102417,0,0.0,0.0,1.56109798E9,,,,0,13.600000381469727,5,-3.9000000953674316,1.56109798E9
Raw,179548336,1504302550036,18,0.0,-1284265647697449984,0.0,50.034610748291016,61400.76171875,0.0,0,3,0.0,7215,276751920686103,40,20.799999237060547,18299.875,0.4005768299102783,0,0.0,0.0,1.57542003E9,,,,0,9.199999809265137,6,-3.9000000953674316,1.57542003E9
Fix,gps,1.348891,103.708474,24.000000,1.030000,24.000000,1600231934000
NMEA,$GPGGA,045214.000,0120.9334,N,10342.5084,E,1,08,3.8,20.4,M,3.2,M,,*5D,1600231933000
NMEA,$GPGLL,0120.9334,N,10342.5084,E,045214.000,A,A*5C,1600231933000
NMEA,$GPVTG,44.2,T,,M,2.0,N,3.7,K,A*39,1600231933000
NMEA,$GPGSV,1,1,04,12,35,221,30,15,77,237,15,24,24,186,29,25,23,258,20*73,1600231933000
NMEA,$GLGSV,1,1,01,71,08,219,13*52,1600231933000
NMEA,$GAGSV,1,1,04,102,24,214,34,103,65,245,21,108,15,221,26,125,16,161,22*67,1600231933000
NMEA,$BDGSV,1,1,03,207,33,174,31,209,70,177,22,210,41,205,27*67,1600231933000
NMEA,$GPGSA,A,3,12,24,,,,,,,,,,,5.2,3.8,3.4*3C,1600231933000
NMEA,$GAGSA,A,3,102,103,108,125,,,,,,,,,5.2,3.8,3.4*26,1600231933000
NMEA,$BDGSA,A,3,207,210,,,,,,,,,,,5.2,3.8,3.4*2E,1600231933000
NMEA,$GPRMC,045214.000,A,0120.9334,N,10342.5084,E,2.0,44.2,160920,,,A*57,1600231933000
NMEA,$PSAMCLK,2123,27675200,8,9673199,91801722,276752000*7D,1600231933000
NMEA,$GPGGA,045214.000,0120.9334,N,10342.5084,E,1,08,3.8,20.4,M,3.2,M,,*5D,1600231933000
NMEA,$GPGLL,0120.9334,N,10342.5084,E,045214.000,A,A*5C,1600231933000
NMEA,$GPVTG,44.2,T,,M,2.0,N,3.7,K,A*39,1600231933000
NMEA,$GPGSV,1,1,04,12,35,221,30,15,77,237,14,24,24,186,29,25,23,258,20*72,1600231933000
NMEA,$GLGSV,1,1,01,71,08,219,13*52,1600231933000
NMEA,$GAGSV,1,1,04,102,24,214,33,103,65,245,21,108,15,221,26,125,16,161,22*60,1600231933000
NMEA,$BDGSV,1,1,03,207,33,174,31,209,70,177,21,210,41,205,27*64,1600231933000
NMEA,$GPGSA,A,3,12,24,,,,,,,,,,,5.2,3.8,3.4*3C,1600231933000
NMEA,$GAGSA,A,3,102,103,108,125,,,,,,,,,5.2,3.8,3.4*26,1600231933000
NMEA,$BDGSA,A,3,207,210,,,,,,,,,,,5.2,3.8,3.4*2E,1600231933000
NMEA,$GPRMC,045214.000,A,0120.9334,N,10342.5084,E,2.0,44.2,160920,,,A*57,1600231933000
NMEA,$PSAMCLK,2123,27675200,8,9673199,91801722,276752000*7D,1600231933000
Nav,8,1537,0,12,57,37,-89,-8,121,-67,51,28,45,74,122,93,-49,0,-128,-125,47,51,-66,71,-100,90,-6,-104,-47,45,100,14,10,0,-64,125,78
Nav,8,1537,0,12,57,37,-89,-8,121,-67,51,28,45,74,122,93,-49,0,-128,-125,47,51,-66,71,-100,90,-6,-104,-47,45,100,14,10,0,-64,125,78
Nav,3,1537,0,12,5,118,107,-67,69,107,-39,65,-61,2,-125,-111,-65,0,64,-82,53,-78,1,-7,-126,-42,78,101,112,4,121,113,-67,0,0,-60,18
Nav,3,1537,0,12,5,118,107,-67,69,107,-39,65,-61,2,-125,-111,-65,0,64,-82,53,-78,1,-7,-126,-42,78,101,112,4,121,113,-67,0,0,-60,18
Raw,179549266,0,,,-9223372036854775808,,,,,0,12,0.0,47,276752924765713,18,30.299999237060547,18674.380859375,0.15622803568840027,0,0.0,0.0,1.57542003E9,,,,0,27.299999237060547,1,-5.199999809265137,1.57542003E9
Raw,179549267,0,,,-9223372036854775808,,,,,0,24,0.0,47,276752922042639,21,28.5,18002.87890625,0.18107740581035614,0,0.0,0.0,1.57542003E9,,,,0,22.600000381469727,1,-5.199999809265137,1.57542003E9
Raw,179549267,0,,,-9223372036854775808,,,,,0,2,0.0,7215,276752912171168,15,33.29999923706055,18573.365234375,0.12486109882593155,0,0.0,0.0,1.57542003E9,,,,0,23.200000762939453,6,-5.199999809265137,1.57542003E9
Raw,179549272,0,,,-9223372036854775808,,,,,0,7,0.0,815,276738873133400,18,30.700000762939453,18584.19140625,0.15140274167060852,0,0.0,0.0,1.56109798E9,,,,0,20.700000762939453,5,-5.199999809265137,1.56109798E9
Raw,179549272,0,,,-9223372036854775808,,,,,0,10,0.0,815,276738875242425,23,26.899999618530273,18611.736328125,0.20850275456905365,0,0.0,0.0,1.56109798E9,,,,0,18.100000381469727,5,-5.199999809265137,1.56109798E9
Raw,179549272,0,,,-9223372036854775808,,,,,0,8,0.0,7215,276752915193366,26,25.700000762939453,17955.419921875,0.23337766528129578,0,0.0,0.0,1.57542003E9,,,,0,15.300000190734863,6,-5.199999809265137,1.57542003E9
Raw,179549272,0,,,-9223372036854775808,,,,,0,25,0.0,7215,276752908930297,35,22.100000381469727,18573.044921875,0.3419855535030365,0,0.0,0.0,1.57542003E9,,,,0,13.800000190734863,6,-5.199999809265137,1.57542003E9
Raw,179549272,0,,,-9223372036854775808,,,,,0,9,0.0,815,276738879935160,38,21.299999237060547,18301.765625,0.37637853622436523,0,0.0,0.0,1.56109798E9,,,,0,14.600000381469727,5,-5.199999809265137,1.56109798E9
Raw,179549273,0,,,-9223372036854775808,,,,,0,3,0.0,7215,276752920686437,41,20.600000381469727,18299.4609375,0.4109138548374176,0,0.0,0.0,1.57542003E9,,,,0,13.5,6,-5.199999809265137,1.57542003E9
Raw,179549297,0,,,-9223372036854775808,,,,,0,12,0.0,47,276752924765713,18,30.299999237060547,18674.380859375,0.15622803568840027,0,0.0,0.0,1.57542003E9,,,,0,27.299999237060547,1,-5.199999809265137,1.57542003E9
Raw,179549297,0,,,-9223372036854775808,,,,,0,24,0.0,47,276752922042639,21,28.5,18002.87890625,0.18107740581035614,0,0.0,0.0,1.57542003E9,,,,0,22.600000381469727,1,-5.199999809265137,1.57542003E9
Raw,179549297,0,,,-9223372036854775808,,,,,0,2,0.0,7215,276752912171168,15,33.20000076293945,18573.365234375,0.1257481873035431,0,0.0,0.0,1.57542003E9,,,,0,23.200000762939453,6,-5.199999809265137,1.57542003E9
Raw,179549298,0,,,-9223372036854775808,,,,,0,7,0.0,815,276738873133400,18,30.700000762939453,18584.19140625,0.15140274167060852,0,0.0,0.0,1.56109798E9,,,,0,20.700000762939453,5,-5.199999809265137,1.56109798E9
Raw,179549298,0,,,-9223372036854775808,,,,,0,10,0.0,815,276738875242425,23,26.899999618530273,18611.736328125,0.20850275456905365,0,0.0,0.0,1.56109798E9,,,,0,18.100000381469727,5,-5.199999809265137,1.56109798E9
Raw,179549298,0,,,-9223372036854775808,,,,,0,8,0.0,7215,276752915193366,26,25.600000381469727,17955.419921875,0.235648974776268,0,0.0,0.0,1.57542003E9,,,,0,15.300000190734863,6,-5.199999809265137,1.57542003E9
Raw,179549298,0,,,-9223372036854775808,,,,,0,25,0.0,7215,276752908930297,35,22.100000381469727,18573.044921875,0.3419855535030365,0,0.0,0.0,1.57542003E9,,,,0,13.800000190734863,6,-5.199999809265137,1.57542003E9
Raw,179549298,0,,,-9223372036854775808,,,,,0,9,0.0,815,276738879935160,38,21.200000762939453,18301.765625,0.38103944063186646,0,0.0,0.0,1.56109798E9,,,,0,14.600000381469727,5,-5.199999809265137,1.56109798E9
Raw,179549298,0,,,-9223372036854775808,,,,,0,3,0.0,7215,276752920686437,41,20.5,18299.4609375,0.416233092546463,0,0.0,0.0,1.57542003E9,,,,0,13.5,6,-5.199999809265137,1.57542003E9
NMEA,$GPGGA,045215.000,,,,,0,,,,,,,,*7F,1600231934000
NMEA,$GPGLL,0120.9341,N,10342.5087,E,045215.000,V,N*44,1600231934000
NMEA,$GPVTG,44.6,T,,M,0.0,N,0.0,K,N*34,1600231934000
NMEA,$GPGSV,1,1,04,12,35,221,30,15,77,237,13,24,24,186,29,25,23,258,19*7F,1600231934000
NMEA,$GAGSV,1,1,04,102,24,214,33,103,65,245,21,108,15,221,26,125,16,161,22*60,1600231934000
NMEA,$BDGSV,1,1,03,207,33,174,31,209,70,177,21,210,41,205,27*64,1600231934000
NMEA,$GPRMC,045215.000,V,,,,,,,160920,,,N*46,1600231934000
NMEA,$PSAMCLK,2123,27675300,7,9673262,91863124,276753000*71,1600231934000
NMEA,$GPGGA,045215.000,,,,,0,,,,,,,,*7F,1600231934000
NMEA,$GPGLL,0120.9341,N,10342.5087,E,045215.000,V,N*44,1600231934000
NMEA,$GPVTG,44.6,T,,M,0.0,N,0.0,K,N*34,1600231934000
NMEA,$GPGSV,1,1,04,12,35,221,30,15,77,237,12,24,24,186,29,25,23,258,17*70,1600231934000
NMEA,$GAGSV,1,1,04,102,24,214,33,103,65,245,21,108,15,221,26,125,16,161,22*60,1600231934000
NMEA,$BDGSV,1,1,03,207,33,174,31,209,70,177,21,210,41,205,27*64,1600231934000
NMEA,$GPRMC,045215.000,V,,,,,,,160920,,,N*46,1600231934000
NMEA,$PSAMCLK,2123,27675300,7,9673262,91863124,276753000*71,1600231934000
Nav,2,1537,1,12,2,10,51,19,2,-3,-119,112,-30,-112,-11,123,-109,0,64,-75,123,0,64,-72,-71,42,0,0,0,-66,121,-86,-86,0,64,-65,-30
Nav,2,1537,1,12,2,10,51,19,2,-3,-119,112,-30,-112,-11,123,-109,0,64,-75,123,0,64,-72,-71,42,0,0,0,-66,121,-86,-86,0,64,-65,-30
Nav,25,1537,0,12,22,58,-115,0,22,-41,64,-27,-4,-121,-120,-96,-56,0,-64,113,44,18,102,28,-93,32,96,30,-15,89,-76,-128,107,0,-64,124,64
Nav,25,1537,0,12,22,58,-115,0,22,-41,64,-27,-4,-121,-120,-96,-56,0,-64,113,44,18,102,28,-93,32,96,30,-15,89,-76,-128,107,0,-64,124,64
Raw,179550265,1506302672837,18,0.0,-1284265647697327104,0.0,50.034610748291016,61400.16015625,0.0,0,12,0.0,47,276753924764796,18,30.299999237060547,18674.8515625,0.15622803568840027,0,0.0,0.0,1.57542003E9,,,,0,26.100000381469727,1,-5.199999809265137,1.57542003E9
Raw,179550266,1506302672837,18,0.0,-1284265647697327104,0.0,50.034610748291016,61400.16015625,0.0,0,24,0.0,47,276753922043973,21,28.5,18003.494140625,0.18107740581035614,0,0.0,0.0,1.57542003E9,,,,0,19.700000762939453,1,-5.199999809265137,1.57542003E9
Raw,179550266,1506302672837,18,0.0,-1284265647697327104,0.0,50.034610748291016,61400.16015625,0.0,0,2,0.0,7215,276753912170615,16,33.099998474121094,18573.41796875,0.1266447901725769,0,0.0,0.0,1.57542003E9,,,,0,19.899999618530273,6,-5.199999809265137,1.57542003E9
Raw,179550266,1506302672837,18,0.0,-1284265647697327104,0.0,50.034610748291016,61400.16015625,0.0,0,10,0.0,815,276739875241714,24,26.799999237060547,18610.046875,0.21042001247406006,0,0.0,0.0,1.56109798E9,,,,0,14.800000190734863,5,-5.199999809265137,1.56109798E9
Raw,179550266,1506302672837,18,0.0,-1284265647697327104,0.0,50.034610748291016,61400.16015625,0.0,0,8,0.0,7215,276753915194920,26,25.399999618530273,17955.890625,0.24029220640659332,0,0.0,0.0,1.57542003E9,,,,0,11.399999618530273,6,-5.199999809265137,1.57542003E9
Raw,179550266,1506302672837,18,0.0,-1284265647697327104,0.0,50.034610748291016,61400.16015625,0.0,0,25,0.0,7215,276753908929717,35,22.100000381469727,18573.8203125,0.3419855535030365,0,0.0,0.0,1.57542003E9,,,,0,14.199999809265137,6,-5.199999809265137,1.57542003E9
Raw,179550267,1506302672837,18,0.0,-1284265647697327104,0.0,50.034610748291016,61400.16015625,0.0,0,9,0.0,815,276739879935524,39,21.100000381469727,18302.828125,0.3857875466346741,0,0.0,0.0,1.56109798E9,,,,0,14.399999618530273,5,-5.199999809265137,1.56109798E9
Raw,179550267,1506302672837,18,0.0,-1284265647697327104,0.0,50.034610748291016,61400.16015625,0.0,0,3,0.0,7215,276753920686788,42,20.299999237060547,18298.396484375,0.42718610167503357,0,0.0,0.0,1.57542003E9,,,,0,15.0,6,-5.199999809265137,1.57542003E9
Raw,179550303,1506302672837,18,0.0,-1284265647697327104,0.0,50.034610748291016,61400.16015625,0.0,0,12,0.0,47,276753924764796,18,30.299999237060547,18674.8515625,0.15622803568840027,0,0.0,0.0,1.57542003E9,,,,0,26.100000381469727,1,-5.199999809265137,1.57542003E9
Raw,179550303,1506302672837,18,0.0,-1284265647697327104,0.0,50.034610748291016,61400.16015625,0.0,0,24,0.0,47,276753922043973,21,28.399999618530273,18003.494140625,0.18262839317321777,0,0.0,0.0,1.57542003E9,,,,0,19.700000762939453,1,-5.199999809265137,1.57542003E9
Raw,179550304,1506302672837,18,0.0,-1284265647697327104,0.0,50.034610748291016,61400.16015625,0.0,0,2,0.0,7215,276753912170615,16,33.0,18573.41796875,0.12755101919174194,0,0.0,0.0,1.57542003E9,,,,0,19.899999618530273,6,-5.199999809265137,1.57542003E9
Raw,179550304,1506302672837,18,0.0,-1284265647697327104,0.0,50.034610748291016,61400.16015625,0.0,0,10,0.0,815,276739875241714,24,26.700000762939453,18610.046875,0.21236379444599152,0,0.0,0.0,1.56109798E9,,,,0,14.800000190734863,5,-5.199999809265137,1.56109798E9
Raw,179550304,1506302672837,18,0.0,-1284265647697327104,0.0,50.034610748291016,61400.16015625,0.0,0,8,0.0,7215,276753915194920,27,25.200000762939453,17955.890625,0.24507398903369904,0,0.0,0.0,1.57542003E9,,,,0,11.399999618530273,6,-5.199999809265137,1.57542003E9
Raw,179550304,1506302672837,18,0.0,-1284265647697327104,0.0,50.034610748291016,61400.16015625,0.0,0,25,0.0,7215,276753908929717,35,22.100000381469727,18573.8203125,0.3419855535030365,0,0.0,0.0,1.57542003E9,,,,0,14.199999809265137,6,-5.199999809265137,1.57542003E9
Raw,179550304,1506302672837,18,0.0,-1284265647697327104,0.0,50.034610748291016,61400.16015625,0.0,0,9,0.0,815,276739879935524,39,21.0,18302.828125,0.390625,0,0.0,0.0,1.56109798E9,,,,0,14.399999618530273,5,-5.199999809265137,1.56109798E9
Raw,179550305,1506302672837,18,0.0,-1284265647697327104,0.0,50.034610748291016,61400.16015625,0.0,0,3,0.0,7215,276753920686788,42,20.200000762939453,18298.396484375,0.43282550573349,0,0.0,0.0,1.57542003E9,,,,0,15.0,6,-5.199999809265137,1.57542003E9
Fix,gps,1.348931,103.708490,24.000000,1.530000,24.000000,1600231936000
NMEA,$GPGGA,045216.000,0120.9358,N,10342.5094,E,1,07,4.0,20.7,M,3.2,M,,*57,1600231935000
NMEA,$GPGLL,0120.9358,N,10342.5094,E,045216.000,A,A*55,1600231935000
NMEA,$GPVTG,32.3,T,,M,3.0,N,5.5,K,A*3C,1600231935000
NMEA,$GPGSV,1,1,03,12,35,221,30,24,24,186,29,25,23,258,16*47,1600231935000
NMEA,$GAGSV,1,1,04,102,24,214,33,103,65,245,20,108,15,221,25,125,16,161,22*62,1600231935000
NMEA,$BDGSV,1,1,03,207,33,174,30,209,70,177,21,210,41,205,27*65,1600231935000
NMEA,$GPGSA,A,3,12,24,,,,,,,,,,,5.4,4.0,3.8*39,1600231935000
NMEA,$GAGSA,A,3,102,103,108,125,,,,,,,,,5.4,4.0,3.8*23,1600231935000
NMEA,$BDGSA,A,3,210,,,,,,,,,,,,5.4,4.0,3.8*1E,1600231935000
NMEA,$GPRMC,045216.000,A,0120.9358,N,10342.5094,E,3.0,32.3,160920,,,A*5F,1600231935000
NMEA,$PSAMCLK,2123,27675400,7,9673104,91924524,276754000*74,1600231935000
NMEA,$GPGGA,045216.000,0120.9358,N,10342.5094,E,1,07,4.0,20.7,M,3.2,M,,*57,1600231935000
NMEA,$GPGLL,0120.9358,N,10342.5094,E,045216.000,A,A*55,1600231935000
NMEA,$GPVTG,32.3,T,,M,3.0,N,5.5,K,A*3C,1600231935000
NMEA,$GPGSV,1,1,03,12,35,221,30,24,24,186,28,25,23,258,14*44,1600231935000
NMEA,$GAGSV,1,1,04,102,24,214,33,103,65,245,20,108,15,221,25,125,16,161,22*62,1600231935000
NMEA,$BDGSV,1,1,03,207,33,174,30,209,70,177,21,210,41,205,27*65,1600231935000
NMEA,$GPGSA,A,3,12,24,,,,,,,,,,,5.4,4.0,3.8*39,1600231935000
NMEA,$GAGSA,A,3,102,103,108,125,,,,,,,,,5.4,4.0,3.8*23,1600231935000
NMEA,$BDGSA,A,3,210,,,,,,,,,,,,5.4,4.0,3.8*1E,1600231935000
NMEA,$GPRMC,045216.000,A,0120.9358,N,10342.5094,E,3.0,32.3,160920,,,A*5F,1600231935000
NMEA,$PSAMCLK,2123,27675400,7,9673104,91924524,276754000*74,1600231935000
Nav,2,1537,0,12,2,10,51,19,2,-3,-119,112,-30,-112,-11,123,-109,0,64,-75,123,51,19,-94,-83,65,119,70,-34,-79,-125,-4,-98,0,0,0,64
Nav,2,1537,0,12,2,10,51,19,2,-3,-119,112,-30,-112,-11,123,-109,0,64,-75,123,51,19,-94,-83,65,119,70,-34,-79,-125,-4,-98,0,0,0,64
Nav,8,1537,0,12,4,-118,91,35,68,92,-124,53,-90,26,7,-30,70,0,-128,-114,108,54,-7,-86,-73,-110,-69,-121,-35,99,-53,56,87,0,-64,-88,109
Nav,8,1537,0,12,4,-118,91,35,68,92,-124,53,-90,26,7,-30,70,0,-128,-114,108,54,-7,-86,-73,-110,-69,-121,-35,99,-53,56,87,0,-64,-88,109
Nav,25,1537,0,12,22,58,-115,0,22,-41,64,-27,-4,-121,-120,-96,-56,0,-64,113,44,35,-63,26,-83,55,-21,-103,11,81,-54,13,25,0,-64,-52,38
Nav,25,1537,0,12,22,58,-115,0,22,-41,64,-27,-4,-121,-120,-96,-56,0,-64,113,44,35,-63,26,-83,55,-21,-103,11,81,-54,13,25,0,-64,-52,38
Nav,3,1537,0,12,26,108,-31,-72,90,39,12,117,18,25,52,94,91,0,-128,116,-21,62,124,-127,-89,24,-59,83,51,86,11,-100,34,0,-64,121,-55
Nav,3,1537,0,12,26,108,-31,-72,90,39,12,117,18,25,52,94,91,0,-128,116,-21,62,124,-127,-89,24,-59,83,51,86,11,-100,34,0,-64,121,-55
Raw,179551276,0,,,-9223372036854775808,,,,,0,12,0.0,47,276754924763907,18,30.299999237060547,18675.32421875,0.15622803568840027,0,0.0,0.0,1.57542003E9,,,,0,26.100000381469727,1,-5.199999809265137,1.57542003E9
Raw,179551276,0,,,-9223372036854775808,,,,,0,24,0.0,47,276754922045303,21,28.399999618530273,18002.7109375,0.18262839317321777,0,0.0,0.0,1.57542003E9,,,,0,21.600000381469727,1,-5.199999809265137,1.57542003E9
Raw,179551276,0,,,-9223372036854775808,,,,,0,2,0.0,7215,276754912170094,16,32.79999923706055,18574.06640625,0.12939289212226868,0,0.0,0.0,1.57542003E9,,,,0,19.5,6,-5.199999809265137,1.57542003E9
Raw,179551276,0,,,-9223372036854775808,,,,,0,10,0.0,815,276740875241097,24,26.600000381469727,18609.265625,0.21433469653129578,0,0.0,0.0,1.56109798E9,,,,0,14.600000381469727,5,-5.199999809265137,1.56109798E9
Raw,179551277,0,,,-9223372036854775808,,,,,0,8,0.0,7215,276754915196431,27,25.0,17955.884765625,0.25,0,0.0,0.0,1.57542003E9,,,,0,14.199999809265137,6,-5.199999809265137,1.57542003E9
Raw,179551277,0,,,-9223372036854775808,,,,,0,25,0.0,7215,276754908929209,35,22.0,18575.126953125,0.34602075815200806,0,0.0,0.0,1.57542003E9,,,,0,16.399999618530273,6,-5.199999809265137,1.57542003E9
Raw,179551277,0,,,-9223372036854775808,,,,,0,7,0.0,815,276740873132200,21,28.700000762939453,18585.609375,0.17803412675857544,0,0.0,0.0,1.56109798E9,,,,0,16.200000762939453,5,-5.199999809265137,1.56109798E9
Raw,179551277,0,,,-9223372036854775808,,,,,0,9,0.0,815,276740879935869,39,20.899999618530273,18303.193359375,0.3955540060997009,0,0.0,0.0,1.56109798E9,,,,0,12.899999618530273,5,-5.199999809265137,1.56109798E9
Raw,179551277,0,,,-9223372036854775808,,,,,0,3,0.0,7215,276754920687196,43,20.100000381469727,18297.30078125,0.43857723474502563,0,0.0,0.0,1.57542003E9,,,,0,14.0,6,-5.199999809265137,1.57542003E9
Raw,179551281,0,,,-9223372036854775808,,,,,0,12,0.0,47,276754924763907,18,30.299999237060547,18675.32421875,0.15622803568840027,0,0.0,0.0,1.57542003E9,,,,0,26.100000381469727,1,-5.199999809265137,1.57542003E9
Raw,179551281,0,,,-9223372036854775808,,,,,0,24,0.0,47,276754922045303,21,28.399999618530273,18002.7109375,0.18262839317321777,0,0.0,0.0,1.57542003E9,,,,0,21.600000381469727,1,-5.199999809265137,1.57542003E9
Raw,179551281,0,,,-9223372036854775808,,,,,0,2,0.0,7215,276754912170094,16,32.599998474121094,18574.06640625,0.13127493858337402,0,0.0,0.0,1.57542003E9,,,,0,19.5,6,-5.199999809265137,1.57542003E9
Raw,179551282,0,,,-9223372036854775808,,,,,0,10,0.0,815,276740875241097,24,26.600000381469727,18609.265625,0.21433469653129578,0,0.0,0.0,1.56109798E9,,,,0,14.600000381469727,5,-5.199999809265137,1.56109798E9
Raw,179551282,0,,,-9223372036854775808,,,,,0,8,0.0,7215,276754915196431,28,24.799999237060547,17955.884765625,0.25507602095603943,0,0.0,0.0,1.57542003E9,,,,0,14.199999809265137,6,-5.199999809265137,1.57542003E9
Raw,179551282,0,,,-9223372036854775808,,,,,0,25,0.0,7215,276754908929209,35,22.0,18575.126953125,0.34602075815200806,0,0.0,0.0,1.57542003E9,,,,0,16.399999618530273,6,-5.199999809265137,1.57542003E9
Raw,179551282,0,,,-9223372036854775808,,,,,0,7,0.0,815,276740873132200,22,28.0,18585.609375,0.18903592228889465,0,0.0,0.0,1.56109798E9,,,,0,16.200000762939453,5,-5.199999809265137,1.56109798E9
Raw,179551282,0,,,-9223372036854775808,,,,,0,9,0.0,815,276740879935869,40,20.799999237060547,18303.193359375,0.4005768299102783,0,0.0,0.0,1.56109798E9,,,,0,12.899999618530273,5,-5.199999809265137,1.56109798E9
Raw,179551283,0,,,-9223372036854775808,,,,,0,3,0.0,7215,276754920687196,44,19.899999618530273,18297.30078125,0.4504301846027374,0,0.0,0.0,1.57542003E9,,,,0,14.0,6,-5.199999809265137,1.57542003E9
NMEA,$GPGGA,045217.000,,,,,0,,,,,,,,*7D,1600231936000
NMEA,$GPGLL,0120.9360,N,10342.5099,E,045217.000,V,N*4A,1600231936000
NMEA,$GPVTG,31.3,T,,M,3.2,N,5.9,K,N*3E,1600231936000
NMEA,$GPGSV,1,1,03,12,35,221,30,24,24,186,28,25,23,258,14*44,1600231936000
NMEA,$GAGSV,1,1,04,102,24,214,33,103,65,245,20,108,15,221,25,125,16,161,22*62,1600231936000
NMEA,$BDGSV,1,1,03,207,33,174,29,209,70,177,21,210,41,205,27*6D,1600231936000
NMEA,$GPRMC,045217.000,V,,,,,,,160920,,,N*44,1600231936000
NMEA,$PSAMCLK,2123,27675500,6,9673168,91985925,276755000*79,1600231936000
NMEA,$GPGGA,045217.000,,,,,0,,,,,,,,*7D,1600231936000
NMEA,$GPGLL,0120.9360,N,10342.5099,E,045217.000,V,N*4A,1600231936000
NMEA,$GPVTG,31.3,T,,M,3.2,N,5.9,K,N*3E,1600231936000
NMEA,$GPGSV,1,1,03,12,35,221,30,24,24,186,28,25,23,258,13*43,1600231936000
NMEA,$GAGSV,1,1,04,102,24,214,33,103,65,245,20,108,15,221,25,125,16,161,22*62,1600231936000
NMEA,$BDGSV,1,1,03,207,33,174,28,209,70,177,21,210,41,205,27*6C,1600231936000
NMEA,$GPRMC,045217.000,V,,,,,,,160920,,,N*44,1600231936000
NMEA,$PSAMCLK,2123,27675500,6,9673168,91985925,276755000*79,1600231936000
Nav,2,1537,0,12,2,10,51,19,2,-3,-119,112,-30,-112,-11,123,-109,0,64,-75,123,-29,-74,27,-90,108,94,-108,-17,-71,107,-104,-99,0,64,-14,-108
Nav,2,1537,0,12,2,10,51,19,2,-3,-119,112,-30,-112,-11,123,-109,0,64,-75,123,-29,-74,27,-90,108,94,-108,-17,-71,107,-104,-99,0,64,-14,-108
Nav,25,1537,0,12,22,58,-115,0,22,-41,64,-27,-4,-121,-120,-96,-56,0,-64,113,44,6,-25,-86,-126,67,-109,28,-8,-24,-59,42,-101,0,0,-123,-6
Nav,25,1537,0,12,22,58,-115,0,22,-41,64,-27,-4,-121,-120,-96,-56,0,-64,113,44,6,-25,-86,-126,67,-109,28,-8,-24,-59,42,-101,0,0,-123,-6
Nav,3,1537,0,12,26,108,-31,-72,90,39,12,117,18,25,52,94,91,0,-128,116,-21,-112,33,-46,-81,-24,-101,62,-74,-82,74,-121,6,0,0,-92,76
Nav,3,1537,0,12,26,108,-31,-72,90,39,12,117,18,25,52,94,91,0,-128,116,-21,-112,33,-46,-81,-24,-101,62,-74,-82,74,-121,6,0,0,-92,76
Raw,179552305,0,,,-9223372036854775808,,,,,0,12,0.0,47,276755924763021,18,30.299999237060547,18675.50390625,0.15622803568840027,0,0.0,0.0,1.57542003E9,,,,0,26.100000381469727,1,-5.199999809265137,1.57542003E9
Raw,179552306,0,,,-9223372036854775808,,,,,0,24,0.0,47,276755922046645,21,28.299999237060547,18003.41015625,0.18419939279556274,0,0.0,0.0,1.57542003E9,,,,0,20.600000381469727,1,-5.199999809265137,1.57542003E9
Raw,179552306,0,,,-9223372036854775808,,,,,0,2,0.0,7215,276755912169516,16,32.099998474121094,18573.658203125,0.13616371154785156,0,0.0,0.0,1.57542003E9,,,,0,19.799999237060547,6,-5.199999809265137,1.57542003E9
Raw,179552306,0,,,-9223372036854775808,,,,,0,10,0.0,815,276741875240394,24,26.399999618530273,18609.30859375,0.21835967898368835,0,0.0,0.0,1.56109798E9,,,,0,14.600000381469727,5,-5.199999809265137,1.56109798E9
Raw,179552307,0,,,-9223372036854775808,,,,,0,8,0.0,7215,276755915197916,28,24.600000381469727,17956.994140625,0.2603082060813904,0,0.0,0.0,1.57542003E9,,,,0,11.800000190734863,6,-5.199999809265137,1.57542003E9
Raw,179552307,0,,,-9223372036854775808,,,,,0,25,0.0,7215,276755908928686,36,21.899999618530273,18575.6328125,0.35012781620025635,0,0.0,0.0,1.57542003E9,,,,0,13.199999809265137,6,-5.199999809265137,1.57542003E9
Raw,179552307,0,,,-9223372036854775808,,,,,0,7,0.0,815,276741873131621,23,27.399999618530273,18585.951171875,0.19929847121238708,0,0.0,0.0,1.56109798E9,,,,0,15.5,5,-5.199999809265137,1.56109798E9
Raw,179552308,0,,,-9223372036854775808,,,,,0,9,0.0,815,276741879936256,40,20.700000762939453,18302.40625,0.40569597482681274,0,0.0,0.0,1.56109798E9,,,,0,16.0,5,-5.199999809265137,1.56109798E9
Raw,179552308,0,,,-9223372036854775808,,,,,0,3,0.0,7215,276755920687562,44,19.799999237060547,18297.154296875,0.4565376043319702,0,0.0,0.0,1.57542003E9,,,,0,11.300000190734863,6,-5.199999809265137,1.57542003E9
Nav,24,257,0,-1,1,-25,-76,63,-35,-25,54,122,-23,-6,-1,75,-5,85,74,-26,-120,6,-12,33,81,-107,-48,116,-123,104,6,113,78,-90,35,110,26,53,63,60,-128,-2,4,28,127
Nav,24,257,0,-1,1,-25,-76,63,-35,-25,54,122,-23,-6,-1,75,-5,85,74,-26,-120,6,-12,33,81,-107,-48,116,-123,104,6,113,78,-90,35,110,26,53,63,60,-128,-2,4,28,127
Nav,12,257,1,-1,1,-25,-76,63,-35,-25,54,122,-23,-27,-1,75,-5,-86,-75,25,119,-7,11,-34,-82,106,47,-117,122,-107,-7,-126,-79,112,-36,110,112,12,-11,63,0,71,-89,46,2
Nav,12,257,1,-1,1,-25,-76,63,-35,-25,54,122,-23,-27,-1,75,-5,-86,-75,25,119,-7,11,-34,-82,106,47,-117,122,-107,-7,-126,-79,112,-36,110,112,12,-11,63,0,71,-89,46,2
Raw,179552343,0,,,-9223372036854775808,,,,,0,12,0.0,47,276755924763021,18,30.299999237060547,18675.50390625,0.15622803568840027,0,0.0,0.0,1.57542003E9,,,,0,26.100000381469727,1,-5.199999809265137,1.57542003E9
Raw,179552343,0,,,-9223372036854775808,,,,,0,24,0.0,47,276755922046645,21,28.299999237060547,18003.41015625,0.18419939279556274,0,0.0,0.0,1.57542003E9,,,,0,20.600000381469727,1,-5.199999809265137,1.57542003E9
Raw,179552343,0,,,-9223372036854775808,,,,,0,2,0.0,7215,276755912169516,17,31.700000762939453,18573.658203125,0.14027409255504608,0,0.0,0.0,1.57542003E9,,,,0,19.799999237060547,6,-5.199999809265137,1.57542003E9
Raw,179552343,0,,,-9223372036854775808,,,,,0,10,0.0,815,276741875240394,24,26.299999237060547,18609.30859375,0.22041483223438263,0,0.0,0.0,1.56109798E9,,,,0,14.600000381469727,5,-5.199999809265137,1.56109798E9
Raw,179552343,0,,,-9223372036854775808,,,,,0,8,0.0,7215,276755915197916,29,24.399999618530273,17956.994140625,0.2657030522823334,0,0.0,0.0,1.57542003E9,,,,0,11.800000190734863,6,-5.199999809265137,1.57542003E9
Raw,179552343,0,,,-9223372036854775808,,,,,0,25,0.0,7215,276755908928686,36,21.899999618530273,18575.6328125,0.35012781620025635,0,0.0,0.0,1.57542003E9,,,,0,13.199999809265137,6,-5.199999809265137,1.57542003E9
Raw,179552343,0,,,-9223372036854775808,,,,,0,7,0.0,815,276741873131621,24,26.799999237060547,18585.951171875,0.21042001247406006,0,0.0,0.0,1.56109798E9,,,,0,15.5,5,-5.199999809265137,1.56109798E9
Raw,179552344,0,,,-9223372036854775808,,,,,0,9,0.0,815,276741879936256,41,20.600000381469727,18302.40625,0.4109138548374176,0,0.0,0.0,1.56109798E9,,,,0,16.0,5,-5.199999809265137,1.56109798E9
Raw,179552344,0,,,-9223372036854775808,,,,,0,3,0.0,7215,276755920687562,45,19.700000762939453,18297.154296875,0.46277016401290894,0,0.0,0.0,1.57542003E9,,,,0,11.300000190734863,6,-5.199999809265137,1.57542003E9
NMEA,$GPGGA,045218.000,,,,,0,,,,,,,,*72,1600231937000
NMEA,$GPGLL,0120.9367,N,10342.5102,E,045218.000,V,N*41,1600231937000
NMEA,$GPVTG,26.4,T,,M,3.3,N,6.1,K,N*35,1600231937000
NMEA,$GPGSV,1,1,03,12,34,220,30,24,24,186,28,25,23,258,12*42,1600231937000
NMEA,$GAGSV,1,1,04,102,24,214,32,103,65,245,20,108,15,221,25,125,16,161,22*63,1600231937000
NMEA,$BDGSV,1,1,03,207,33,174,27,209,70,177,21,210,41,205,26*62,1600231937000
NMEA,$GPRMC,045218.000,V,,,,,,,160920,,,N*4B,1600231937000
NMEA,$PSAMCLK,2123,27675600,6,9673271,92047327,276756000*7E,1600231937000
NMEA,$GPGGA,045218.000,,,,,0,,,,,,,,*72,1600231937000
NMEA,$GPGLL,0120.9367,N,10342.5102,E,045218.000,V,N*41,1600231937000
NMEA,$GPVTG,26.4,T,,M,3.3,N,6.1,K,N*35,1600231937000
NMEA,$GPGSV,1,1,02,12,34,220,30,24,24,186,28*79,1600231937000
NMEA,$GAGSV,1,1,04,102,24,214,32,103,65,245,20,108,15,221,24,125,16,161,22*62,1600231937000
NMEA,$BDGSV,1,1,03,207,33,174,27,209,70,177,21,210,41,205,26*62,1600231937000
NMEA,$GPRMC,045218.000,V,,,,,,,160920,,,N*4B,1600231937000
NMEA,$PSAMCLK,2123,27675600,6,9673271,92047327,276756000*7E,1600231937000
Nav,2,1537,0,12,2,10,51,19,2,-3,-119,112,-30,-112,-11,123,-109,0,64,-75,123,-104,74,-57,-76,49,71,-63,-106,-95,114,-4,51,0,-64,-51,-98
Nav,2,1537,0,12,2,10,51,19,2,-3,-119,112,-30,-112,-11,123,-109,0,64,-75,123,-104,74,-57,-76,49,71,-63,-106,-95,114,-4,51,0,-64,-51,-98
Nav,8,1537,0,12,37,-107,-46,-128,101,100,97,-21,80,21,-128,47,87,0,0,42,-95,73,6,107,-63,47,-67,11,77,-48,80,-47,17,0,0,-86,-80
Nav,8,1537,0,12,37,-107,-46,-128,101,100,97,-21,80,21,-128,47,87,0,0,42,-95,73,6,107,-63,47,-67,11,77,-48,80,-47,17,0,0,-86,-80
Nav,25,1537,0,12,22,58,-115,0,22,-41,64,-27,-4,-121,-120,-96,-56,0,-64,113,44,23,-75,-1,-73,-15,86,24,55,-123,48,40,-81,0,0,2,-46
Nav,25,1537,0,12,22,58,-115,0,22,-41,64,-27,-4,-121,-120,-96,-56,0,-64,113,44,23,-75,-1,-73,-15,86,24,55,-123,48,40,-81,0,0,2,-46
Raw,179553262,1509302857038,18,0.0,-1284265647697143040,0.0,50.034610748291016,61401.4140625,0.0,0,12,0.0,47,276756924762123,18,30.299999237060547,18675.20703125,0.15622803568840027,0,0.0,0.0,1.57542003E9,,,,0,24.600000381469727,1,-5.199999809265137,1.57542003E9
Raw,179553262,1509302857038,18,0.0,-1284265647697143040,0.0,50.034610748291016,61401.4140625,0.0,0,24,0.0,47,276756922047988,21,28.200000762939453,18003.896484375,0.18579070270061493,0,0.0,0.0,1.57542003E9,,,,0,20.600000381469727,1,-5.199999809265137,1.57542003E9
Raw,179553262,1509302857038,18,0.0,-1284265647697143040,0.0,50.034610748291016,61401.4140625,0.0,0,2,0.0,7215,276756912168950,17,31.200000762939453,18572.548828125,0.14567914605140686,0,0.0,0.0,1.57542003E9,,,,0,17.799999237060547,6,-5.199999809265137,1.57542003E9
Raw,179553262,1509302857038,18,0.0,-1284265647697143040,0.0,50.034610748291016,61401.4140625,0.0,0,10,0.0,815,276742875239686,25,26.200000762939453,18609.703125,0.2224990874528885,0,0.0,0.0,1.56109798E9,,,,0,16.399999618530273,5,-5.199999809265137,1.56109798E9
Raw,179553263,1509302857038,18,0.0,-1284265647697143040,0.0,50.034610748291016,61401.4140625,0.0,0,8,0.0,7215,276756915199443,29,24.299999237060547,17957.328125,0.2684636116027832,0,0.0,0.0,1.57542003E9,,,,0,10.199999809265137,6,-5.199999809265137,1.57542003E9
Raw,179553263,1509302857038,18,0.0,-1284265647697143040,0.0,50.034610748291016,61401.4140625,0.0,0,25,0.0,7215,276756908928087,36,21.799999237060547,18575.9609375,0.35430842638015747,0,0.0,0.0,1.57542003E9,,,,0,12.399999618530273,6,-5.199999809265137,1.57542003E9
Raw,179553263,1509302857038,18,0.0,-1284265647697143040,0.0,50.034610748291016,61401.4140625,0.0,0,7,0.0,815,276742873131046,24,26.299999237060547,18586.626953125,0.22041483223438263,0,0.0,0.0,1.56109798E9,,,,0,15.0,5,-5.199999809265137,1.56109798E9
Raw,179553263,1509302857038,18,0.0,-1284265647697143040,0.0,50.034610748291016,61401.4140625,0.0,0,9,0.0,815,276742879936625,41,20.5,18302.208984375,0.416233092546463,0,0.0,0.0,1.56109798E9,,,,0,15.300000190734863,5,-5.199999809265137,1.56109798E9
Raw,179553263,1509302857038,18,0.0,-1284265647697143040,0.0,50.034610748291016,61401.4140625,0.0,0,3,0.0,7215,276756920687924,45,19.600000381469727,18296.7734375,0.4691311717033386,0,0.0,0.0,1.57542003E9,,,,0,15.300000190734863,6,-5.199999809265137,1.57542003E9
Raw,179553327,1509302857038,18,0.0,-1284265647697143040,0.0,50.034610748291016,61401.4140625,0.0,0,12,0.0,47,276756924762123,19,30.200000762939453,18675.20703125,0.15747039020061493,0,0.0,0.0,1.57542003E9,,,,0,24.600000381469727,1,-5.199999809265137,1.57542003E9
Raw,179553328,1509302857038,18,0.0,-1284265647697143040,0.0,50.034610748291016,61401.4140625,0.0,0,24,0.0,47,276756922047988,21,28.100000381469727,18003.896484375,0.18740276992321014,0,0.0,0.0,1.57542003E9,,,,0,20.600000381469727,1,-5.199999809265137,1.57542003E9
Raw,179553328,1509302857038,18,0.0,-1284265647697143040,0.0,50.034610748291016,61401.4140625,0.0,0,2,0.0,7215,276756912168950,18,30.899999618530273,18572.548828125,0.1490735113620758,0,0.0,0.0,1.57542003E9,,,,0,17.799999237060547,6,-5.199999809265137,1.57542003E9
Raw,179553328,1509302857038,18,0.0,-1284265647697143040,0.0,50.034610748291016,61401.4140625,0.0,0,10,0.0,815,276742875239686,25,26.100000381469727,18609.703125,0.22461310029029846,0,0.0,0.0,1.56109798E9,,,,0,16.399999618530273,5,-5.199999809265137,1.56109798E9
Raw,179553329,1509302857038,18,0.0,-1284265647697143040,0.0,50.034610748291016,61401.4140625,0.0,0,8,0.0,7215,276756915199443,29,24.100000381469727,17957.328125,0.27411526441574097,0,0.0,0.0,1.57542003E9,,,,0,10.199999809265137,6,-5.199999809265137,1.57542003E9
Raw,179553329,1509302857038,18,0.0,-1284265647697143040,0.0,50.034610748291016,61401.4140625,0.0,0,25,0.0,7215,276756908928087,36,21.700000762939453,18575.9609375,0.3585642874240875,0,0.0,0.0,1.57542003E9,,,,0,12.399999618530273,6,-5.199999809265137,1.57542003E9
Raw,179553330,1509302857038,18,0.0,-1284265647697143040,0.0,50.034610748291016,61401.4140625,0.0,0,7,0.0,815,276742873131046,25,25.799999237060547,18586.626953125,0.23113907873630524,0,0.0,0.0,1.56109798E9,,,,0,15.0,5,-5.199999809265137,1.56109798E9
Raw,179553330,1509302857038,18,0.0,-1284265647697143040,0.0,50.034610748291016,61401.4140625,0.0,0,9,0.0,815,276742879936625,41,20.399999618530273,18302.208984375,0.4216562807559967,0,0.0,0.0,1.56109798E9,,,,0,15.300000190734863,5,-5.199999809265137,1.56109798E9
Raw,179553330,1509302857038,18,0.0,-1284265647697143040,0.0,50.034610748291016,61401.4140625,0.0,0,3,0.0,7215,276756920687924,46,19.399999618530273,18296.7734375,0.48225313425064087,0,0.0,0.0,1.57542003E9,,,,0,15.300000190734863,6,-5.199999809265137,1.57542003E9
Fix,gps,1.348974,103.708493,24.000000,1.970000,26.500000,1600231939000
NMEA,$GPGGA,045219.000,0120.9384,N,10342.5095,E,1,07,4.2,20.9,M,3.2,M,,*54,1600231938000
NMEA,$GPGLL,0120.9384,N,10342.5095,E,045219.000,A,A*5A,1600231938000
NMEA,$GPVTG,8.4,T,,M,3.8,N,7.1,K,A*0C,1600231938000
NMEA,$GPGSV,1,1,02,12,34,220,30,24,24,186,28*79,1600231938000
NMEA,$GAGSV,1,1,04,102,24,214,31,103,65,245,20,108,15,221,24,125,16,161,22*61,1600231938000
NMEA,$BDGSV,1,1,03,207,33,174,26,209,70,177,21,210,41,205,26*63,1600231938000
NMEA,$GPGSA,A,3,12,24,,,,,,,,,,,6.0,4.2,4.2*31,1600231938000
NMEA,$GAGSA,A,3,102,103,108,125,,,,,,,,,6.0,4.2,4.2*2B,1600231938000
NMEA,$BDGSA,A,3,207,,,,,,,,,,,,6.0,4.2,4.2*10,1600231938000
NMEA,$GPRMC,045219.000,A,0120.9384,N,10342.5095,E,3.8,8.4,160920,,,A*66,1600231938000
NMEA,$PSAMCLK,2123,27675700,7,9673302,92108727,276757000*74,1600231938000
NMEA,$GPGGA,045219.000,0120.9384,N,10342.5095,E,1,07,4.2,20.9,M,3.2,M,,*54,1600231938000
NMEA,$GPGLL,0120.9384,N,10342.5095,E,045219.000,A,A*5A,1600231938000
NMEA,$GPVTG,8.4,T,,M,3.8,N,7.1,K,A*0C,1600231938000
NMEA,$GPGSV,1,1,02,12,34,220,30,24,24,186,28*79,1600231938000
NMEA,$GAGSV,1,1,04,102,24,214,31,103,65,245,19,108,15,221,24,125,16,161,22*6B,1600231938000
NMEA,$BDGSV,1,1,03,207,33,174,26,209,70,177,20,210,41,205,26*62,1600231938000
NMEA,$GPGSA,A,3,12,24,,,,,,,,,,,6.0,4.2,4.2*31,1600231938000
NMEA,$GAGSA,A,3,102,103,108,125,,,,,,,,,6.0,4.2,4.2*2B,1600231938000
NMEA,$BDGSA,A,3,207,,,,,,,,,,,,6.0,4.2,4.2*10,1600231938000
NMEA,$GPRMC,045219.000,A,0120.9384,N,10342.5095,E,3.8,8.4,160920,,,A*66,1600231938000
NMEA,$PSAMCLK,2123,27675700,7,9673302,92108727,276757000*74,1600231938000
Nav,2,1537,0,12,2,10,51,19,2,-3,-119,112,-30,-112,-11,123,-109,0,64,-75,123,-25,-5,72,-9,14,-83,3,-1,-123,-75,-48,56,0,64,104,50
Nav,2,1537,0,12,2,10,51,19,2,-3,-119,112,-30,-112,-11,123,-109,0,64,-75,123,-25,-5,72,-9,14,-83,3,-1,-123,-75,-48,56,0,64,104,50
Nav,8,1537,0,12,37,-107,-46,-128,101,100,97,-21,80,21,-128,47,87,0,0,42,-95,-98,-42,-34,-102,17,-72,57,-23,92,-51,38,4,0,-128,107,51
Nav,8,1537,0,12,37,-107,-46,-128,101,100,97,-21,80,21,-128,47,87,0,0,42,-95,-98,-42,-34,-102,17,-72,57,-23,92,-51,38,4,0,-128,107,51
Nav,25,1537,0,12,22,58,-115,0,22,-41,64,-27,-4,-121,-120,-96,-56,0,-64,113,44,-112,-76,-34,-127,53,81,-119,-126,28,106,-83,-92,0,-128,-52,24
Nav,25,1537,0,12,22,58,-115,0,22,-41,64,-27,-4,-121,-120,-96,-56,0,-64,113,44,-112,-76,-34,-127,53,81,-119,-126,28,106,-83,-92,0,-128,-52,24
Raw,179554336,1510302918438,18,0.0,-1284265647697081600,0.0,50.034610748291016,61399.859375,0.0,0,12,0.0,47,276757924761249,19,30.200000762939453,18675.185546875,0.15747039020061493,0,0.0,0.0,1.57542003E9,,,,0,26.700000762939453,1,-3.9000000953674316,1.57542003E9
Raw,179554337,1510302918438,18,0.0,-1284265647697081600,0.0,50.034610748291016,61399.859375,0.0,0,24,0.0,47,276757922049289,21,28.100000381469727,18003.564453125,0.18740276992321014,0,0.0,0.0,1.57542003E9,,,,0,21.600000381469727,1,-3.9000000953674316,1.57542003E9
Raw,179554337,1510302918438,18,0.0,-1284265647697081600,0.0,50.034610748291016,61399.859375,0.0,0,2,0.0,7215,276757912168406,18,30.5,18573.916015625,0.15378700196743011,0,0.0,0.0,1.57542003E9,,,,0,19.799999237060547,6,-3.9000000953674316,1.57542003E9
Raw,179554338,1510302918438,18,0.0,-1284265647697081600,0.0,50.034610748291016,61399.859375,0.0,0,10,0.0,815,276743875239020,25,26.0,18609.56640625,0.22675736248493195,0,0.0,0.0,1.56109798E9,,,,0,16.700000762939453,5,-3.9000000953674316,1.56109798E9
Raw,179554338,1510302918438,18,0.0,-1284265647697081600,0.0,50.034610748291016,61399.859375,0.0,0,8,0.0,7215,276757915200985,30,23.899999618530273,17957.080078125,0.2799473702907562,0,0.0,0.0,1.57542003E9,,,,0,12.600000381469727,6,-3.9000000953674316,1.57542003E9
Raw,179554339,1510302918438,18,0.0,-1284265647697081600,0.0,50.034610748291016,61399.859375,0.0,0,25,0.0,7215,276757908927516,37,21.600000381469727,18576.630859375,0.3628973662853241,0,0.0,0.0,1.57542003E9,,,,0,14.899999618530273,6,-3.9000000953674316,1.57542003E9
Raw,179554339,1510302918438,18,0.0,-1284265647697081600,0.0,50.034610748291016,61399.859375,0.0,0,7,0.0,815,276743873130444,26,25.299999237060547,18585.896484375,0.24266545474529266,0,0.0,0.0,1.56109798E9,,,,0,12.399999618530273,5,-3.9000000953674316,1.56109798E9
Raw,179554341,1510302918438,18,0.0,-1284265647697081600,0.0,50.034610748291016,61399.859375,0.0,0,9,0.0,815,276743879937016,42,20.299999237060547,18302.716796875,0.42718610167503357,0,0.0,0.0,1.56109798E9,,,,0,10.899999618530273,5,-3.9000000953674316,1.56109798E9
Raw,179554342,1510302918438,18,0.0,-1284265647697081600,0.0,50.034610748291016,61399.859375,0.0,0,3,0.0,7215,276757920688328,47,19.299999237060547,18296.7890625,0.4890214502811432,0,0.0,0.0,1.57542003E9,,,,0,16.200000762939453,6,-3.9000000953674316,1.57542003E9
Fix,gps,1.349027,103.708496,24.000000,2.380000,27.000000,1600231940000
Nav,9,1281,0,106,4,43,-60,67,7,-114,-87,-17,14,27,86,5,9,8,-127,29,19,19,-105,51,7,-61,57,-20,3,12,38,5,8,-20,24,18,20,-86,-64,-86,3,127,-25,-65,54
Nav,9,1281,0,106,4,43,-60,67,7,-114,-87,-17,14,27,86,5,9,8,-127,29,19,19,-105,51,7,-61,57,-20,3,12,38,5,8,-20,24,18,20,-86,-64,-86,3,127,-25,-65,54
Raw,179554351,1510302918438,18,0.0,-1284265647697081600,0.0,50.034610748291016,61399.859375,0.0,0,12,0.0,47,276757924761249,19,30.200000762939453,18675.185546875,0.15747039020061493,0,0.0,0.0,1.57542003E9,,,,0,26.700000762939453,1,-3.9000000953674316,1.57542003E9
Raw,179554351,1510302918438,18,0.0,-1284265647697081600,0.0,50.034610748291016,61399.859375,0.0,0,24,0.0,47,276757922049289,22,28.0,18003.564453125,0.18903592228889465,0,0.0,0.0,1.57542003E9,,,,0,21.600000381469727,1,-3.9000000953674316,1.57542003E9
Raw,179554351,1510302918438,18,0.0,-1284265647697081600,0.0,50.034610748291016,61399.859375,0.0,0,2,0.0,7215,276757912168406,19,30.100000381469727,18573.916015625,0.15872763097286224,0,0.0,0.0,1.57542003E9,,,,0,19.799999237060547,6,-3.9000000953674316,1.57542003E9
Raw,179554351,1510302918438,18,0.0,-1284265647697081600,0.0,50.034610748291016,61399.859375,0.0,0,10,0.0,815,276743875239020,25,25.899999618530273,18609.56640625,0.2289324849843979,0,0.0,0.0,1.56109798E9,,,,0,16.700000762939453,5,-3.9000000953674316,1.56109798E9
Raw,179554351,1510302918438,18,0.0,-1284265647697081600,0.0,50.034610748291016,61399.859375,0.0,0,8,0.0,7215,276757915200985,30,23.700000762939453,17957.080078125,0.28596755862236023,0,0.0,0.0,1.57542003E9,,,,0,12.600000381469727,6,-3.9000000953674316,1.57542003E9
Raw,179554351,1510302918438,18,0.0,-1284265647697081600,0.0,50.034610748291016,61399.859375,0.0,0,25,0.0,7215,276757908927516,37,21.5,18576.630859375,0.36730945110321045,0,0.0,0.0,1.57542003E9,,,,0,14.899999618530273,6,-3.9000000953674316,1.57542003E9
Raw,179554351,1510302918438,18,0.0,-1284265647697081600,0.0,50.034610748291016,61399.859375,0.0,0,7,0.0,815,276743873130444,27,24.899999618530273,18585.896484375,0.252518892288208,0,0.0,0.0,1.56109798E9,,,,0,12.399999618530273,5,-3.9000000953674316,1.56109798E9
Raw,179554351,1510302918438,18,0.0,-1284265647697081600,0.0,50.034610748291016,61399.859375,0.0,0,9,0.0,815,276743879937016,42,20.200000762939453,18302.716796875,0.43282550573349,0,0.0,0.0,1.56109798E9,,,,0,10.899999618530273,5,-3.9000000953674316,1.56109798E9
Raw,179554351,1510302918438,18,0.0,-1284265647697081600,0.0,50.034610748291016,61399.859375,0.0,0,3,0.0,7215,276757920688328,47,19.200000762939453,18296.7890625,0.4959333539009094,0,0.0,0.0,1.57542003E9,,,,0,16.200000762939453,6,-3.9000000953674316,1.57542003E9
Nav,7,1281,0,105,4,-60,71,-112,56,-74,-89,79,24,110,96,23,57,107,17,67,56,37,17,4,2,111,-55,-98,18,80,-76,-97,7,-60,55,-45,17,-78,-6,-28,41,49,-2,101,5
Nav,7,1281,0,105,4,-60,71,-112,56,-74,-89,79,24,110,96,23,57,107,17,67,56,37,17,4,2,111,-55,-98,18,80,-76,-97,7,-60,55,-45,17,-78,-6,-28,41,49,-2,101,5
Nav,10,1281,0,105,6,15,99,-48,60,0,-89,111,58,-84,31,113,22,127,3,78,41,-58,61,-123,10,26,-10,-128,36,52,-73,63,54,-121,32,80,45,72,108,-29,24,-97,-108,-125,40
Nav,10,1281,0,105,6,15,99,-48,60,0,-89,111,58,-84,31,113,22,127,3,78,41,-58,61,-123,10,26,-10,-128,36,52,-73,63,54,-121,32,80,45,72,108,-29,24,-97,-108,-125,40
NMEA,$GPGGA,045220.000,0120.9416,N,10342.5097,E,1,05,6.6,20.8,M,3.2,M,,*55,1600231939000
NMEA,$GPGLL,0120.9416,N,10342.5097,E,045220.000,A,A*5E,1600231939000
NMEA,$GPVTG,358.4,T,,M,4.6,N,8.6,K,A*0B,1600231939000
NMEA,$GPGSV,1,1,02,12,34,220,30,24,24,186,28*79,1600231939000
NMEA,$GAGSV,1,1,04,102,24,214,31,103,65,245,19,108,15,221,24,125,16,161,22*6B,1600231939000
NMEA,$BDGSV,1,1,03,207,33,174,25,209,70,177,20,210,41,205,26*61,1600231939000
NMEA,$GPGSA,A,3,12,,,,,,,,,,,,9.4,6.6,6.6*3C,1600231939000
NMEA,$GAGSA,A,3,102,103,108,125,,,,,,,,,9.4,6.6,6.6*20,1600231939000
NMEA,$GPRMC,045220.000,A,0120.9416,N,10342.5097,E,4.6,358.4,160920,,,A*6D,1600231939000
NMEA,$PSAMCLK,2123,27675800,5,9673056,92170118,276758000*71,1600231939000
NMEA,$GPGGA,045220.000,0120.9416,N,10342.5097,E,1,05,6.6,20.8,M,3.2,M,,*55,1600231939000
NMEA,$GPGLL,0120.9416,N,10342.5097,E,045220.000,A,A*5E,1600231939000
NMEA,$GPVTG,358.4,T,,M,4.6,N,8.6,K,A*0B,1600231939000
NMEA,$GPGSV,1,1,02,12,34,220,30,24,24,186,28*79,1600231939000
NMEA,$GAGSV,1,1,04,102,24,214,30,103,65,245,19,108,15,221,24,125,16,161,22*6A,1600231939000
NMEA,$BDGSV,1,1,03,207,33,174,25,209,70,177,20,210,41,205,26*61,1600231939000
NMEA,$GPGSA,A,3,12,,,,,,,,,,,,9.4,6.6,6.6*3C,1600231939000
NMEA,$GAGSA,A,3,102,103,108,125,,,,,,,,,9.4,6.6,6.6*20,1600231939000
NMEA,$GPRMC,045220.000,A,0120.9416,N,10342.5097,E,4.6,358.4,160920,,,A*6D,1600231939000
NMEA,$PSAMCLK,2123,27675800,5,9673056,92170118,276758000*71,1600231939000
Nav,2,1537,0,12,2,10,51,19,2,-3,-119,112,-30,-112,-11,123,-109,0,64,-75,123,66,105,111,-75,116,33,115,102,0,-34,23,100,0,0,21,-82
Nav,2,1537,0,12,2,10,51,19,2,-3,-119,112,-30,-112,-11,123,-109,0,64,-75,123,66,105,111,-75,116,33,115,102,0,-34,23,100,0,0,21,-82
Nav,25,1537,0,12,22,58,-115,0,22,-41,64,-27,-4,-121,-120,-96,-56,0,-64,113,44,61,-90,-63,-75,-104,-87,-33,22,123,57,93,112,0,64,-91,23
Nav,25,1537,0,12,22,58,-115,0,22,-41,64,-27,-4,-121,-120,-96,-56,0,-64,113,44,61,-90,-63,-75,-104,-87,-33,22,123,57,93,112,0,64,-91,23
Raw,179555471,1511302979838,18,0.0,-1284265647697020160,0.0,50.034610748291016,61398.47265625,0.0,0,12,0.0,47,276758924760351,18,30.399999618530273,18675.748046875,0.15500031411647797,0,0.0,0.0,1.57542003E9,,,,0,31.200000762939453,1,-1.2999999523162842,1.57542003E9
Raw,179555472,1511302979838,18,0.0,-1284265647697020160,0.0,50.034610748291016,61398.47265625,0.0,0,24,0.0,47,276758922050687,22,27.899999618530273,18003.943359375,0.19069050252437592,0,0.0,0.0,1.57542003E9,,,,0,22.299999237060547,1,-1.2999999523162842,1.57542003E9
Raw,179555473,1511302979838,18,0.0,-1284265647697020160,0.0,50.034610748291016,61398.47265625,0.0,0,2,0.0,7215,276758912167833,19,29.799999237060547,18573.734375,0.16259105503559113,0,0.0,0.0,1.57542003E9,,,,0,22.700000762939453,6,-1.2999999523162842,1.57542003E9
Raw,179555474,1511302979838,18,0.0,-1284265647697020160,0.0,50.034610748291016,61398.47265625,0.0,0,10,0.0,815,276744875238325,26,25.700000762939453,18610.759765625,0.23337766528129578,0,0.0,0.0,1.56109798E9,,,,0,19.299999237060547,5,-1.2999999523162842,1.56109798E9
Raw,179555474,1511302979838,18,0.0,-1284265647697020160,0.0,50.034610748291016,61398.47265625,0.0,0,8,0.0,7215,276758915202392,31,23.5,17957.03125,0.29218408465385437,0,0.0,0.0,1.57542003E9,,,,0,18.399999618530273,6,-1.2999999523162842,1.57542003E9
Raw,179555475,1511302979838,18,0.0,-1284265647697020160,0.0,50.034610748291016,61398.47265625,0.0,0,25,0.0,7215,276758908926928,37,21.5,18577.283203125,0.36730945110321045,0,0.0,0.0,1.57542003E9,,,,0,14.199999809265137,6,-1.2999999523162842,1.57542003E9
Raw,179555475,1511302979838,18,0.0,-1284265647697020160,0.0,50.034610748291016,61398.47265625,0.0,0,7,0.0,815,276744873129868,29,24.399999618530273,18585.603515625,0.2657030522823334,0,0.0,0.0,1.56109798E9,,,,0,14.800000190734863,5,-1.2999999523162842,1.56109798E9
Raw,179555476,1511302979838,18,0.0,-1284265647697020160,0.0,50.034610748291016,61398.47265625,0.0,0,9,0.0,815,276744879937357,43,20.100000381469727,18303.03125,0.43857723474502563,0,0.0,0.0,1.56109798E9,,,,0,18.0,5,-1.2999999523162842,1.56109798E9
Raw,179555476,1511302979838,18,0.0,-1284265647697020160,0.0,50.034610748291016,61398.47265625,0.0,0,3,0.0,7215,276758920688715,48,19.100000381469727,18296.662109375,0.5029927492141724,0,0.0,0.0,1.57542003E9,,,,0,13.600000381469727,6,-1.2999999523162842,1.57542003E9
Raw,179555494,1511302979838,18,0.0,-1284265647697020160,0.0,50.034610748291016,61398.47265625,0.0,0,12,0.0,47,276758924760351,18,30.399999618530273,18675.748046875,0.15500031411647797,0,0.0,0.0,1.57542003E9,,,,0,31.200000762939453,1,-1.2999999523162842,1.57542003E9
Raw,179555496,1511302979838,18,0.0,-1284265647697020160,0.0,50.034610748291016,61398.47265625,0.0,0,24,0.0,47,276758922050687,22,27.899999618530273,18003.943359375,0.19069050252437592,0,0.0,0.0,1.57542003E9,,,,0,22.299999237060547,1,-1.2999999523162842,1.57542003E9
Raw,179555496,1511302979838,18,0.0,-1284265647697020160,0.0,50.034610748291016,61398.47265625,0.0,0,2,0.0,7215,276758912167833,19,29.600000381469727,18573.734375,0.16524554789066315,0,0.0,0.0,1.57542003E9,,,,0,22.700000762939453,6,-1.2999999523162842,1.57542003E9
Raw,179555497,1511302979838,18,0.0,-1284265647697020160,0.0,50.034610748291016,61398.47265625,0.0,0,10,0.0,815,276744875238325,26,25.600000381469727,18610.759765625,0.235648974776268,0,0.0,0.0,1.56109798E9,,,,0,19.299999237060547,5,-1.2999999523162842,1.56109798E9
Raw,179555498,1511302979838,18,0.0,-1284265647697020160,0.0,50.034610748291016,61398.47265625,0.0,0,8,0.0,7215,276758915202392,31,23.299999237060547,17957.03125,0.2986055314540863,0,0.0,0.0,1.57542003E9,,,,0,18.399999618530273,6,-1.2999999523162842,1.57542003E9
Raw,179555498,1511302979838,18,0.0,-1284265647697020160,0.0,50.034610748291016,61398.47265625,0.0,0,25,0.0,7215,276758908926928,37,21.399999618530273,18577.283203125,0.37180250883102417,0,0.0,0.0,1.57542003E9,,,,0,14.199999809265137,6,-1.2999999523162842,1.57542003E9
Raw,179555499,1511302979838,18,0.0,-1284265647697020160,0.0,50.034610748291016,61398.47265625,0.0,0,7,0.0,815,276744873129868,30,24.0,18585.603515625,0.2770083248615265,0,0.0,0.0,1.56109798E9,,,,0,14.800000190734863,5,-1.2999999523162842,1.56109798E9
Raw,179555499,1511302979838,18,0.0,-1284265647697020160,0.0,50.034610748291016,61398.47265625,0.0,0,9,0.0,815,276744879937357,43,20.0,18303.03125,0.4444444477558136,0,0.0,0.0,1.56109798E9,,,,0,18.0,5,-1.2999999523162842,1.56109798E9
Raw,179555500,1511302979838,18,0.0,-1284265647697020160,0.0,50.034610748291016,61398.47265625,0.0,0,3,0.0,7215,276758920688715,49,18.899999618530273,18296.662109375,0.5175715684890747,0,0.0,0.0,1.57542003E9,,,,0,13.600000381469727,6,-1.2999999523162842,1.57542003E9
Fix,gps,1.349080,103.708510,25.000000,2.960000,29.000000,1600231941000
NMEA,$GPGGA,045221.000,0120.9447,N,10342.5106,E,1,06,6.2,21.3,M,3.2,M,,*54,1600231940000
NMEA,$GPGLL,0120.9447,N,10342.5106,E,045221.000,A,A*52,1600231940000
NMEA,$GPVTG,359.7,T,,M,5.8,N,10.7,K,A*3E,1600231940000
NMEA,$GPGSV,1,1,02,12,34,220,30,24,24,186,28*79,1600231940000
NMEA,$GAGSV,1,1,04,102,24,214,30,103,65,245,19,108,15,221,24,125,16,161,22*6A,1600231940000
NMEA,$BDGSV,1,1,03,207,33,174,24,209,70,177,20,210,41,205,26*60,1600231940000
