# 
# Header Description:
# 
# Version: v2.0.0.1 Platform: 9 Manufacturer: samsung Model: SM-A507FN
# 
# Raw,ElapsedRealtimeMillis,TimeNanos,LeapSecond,TimeUncertaintyNanos,FullBiasNanos,BiasNanos,BiasUncertaintyNanos,DriftNanosPerSecond,DriftUncertaintyNanosPerSecond,HardwareClockDiscontinuityCount,Svid,TimeOffsetNanos,State,ReceivedSvTimeNanos,ReceivedSvTimeUncertaintyNanos,Cn0DbHz,PseudorangeRateMetersPerSecond,PseudorangeRateUncertaintyMetersPerSecond,AccumulatedDeltaRangeState,AccumulatedDeltaRangeMeters,AccumulatedDeltaRangeUncertaintyMeters,CarrierFrequencyHz,CarrierCycles,CarrierPhase,CarrierPhaseUncertainty,MultipathIndicator,SnrInDb,ConstellationType,AgcDb,CarrierFrequencyHz
# 
# Fix,Provider,Latitude,Longitude,Altitude,Speed,Accuracy,(UTC)TimeInMs
# 
# Nav,Svid,Type,Status,MessageId,Sub-messageId,Data(Bytes)
# 
Nav,24,257,0,-1,3,1,1,1,1,1,1,1,1,-14,20,-4,-1,-122,49,84,-88,84,-74,15,-88,88,85,80,24,17,121,-78,11,21,17,-10,109,1,-104,-23,64,107,127,-122,101
Nav,24,257,0,31,4,16,-53,48,-35,20,23,89,22,31,111,-26,39,-23,-113,45,-25,77,-64,86,79,-56,110,-65,87,23,-93,-84,35,-71,78,-102,-24,-28,57,-54,122,-7,-13,-21,52
Nav,15,257,0,0,5,1,1,1,1,1,1,1,1,107,14,0,0,100,22,60,-25,-31,-1,-76,32,-54,-120,-68,87,109,111,116,-107,-4,106,-6,69,-33,-24,-124,19,43,30,-64,-50
Nav,12,257,0,10,5,1,1,1,1,48,0,0,0,43,15,-116,18,100,22,60,-25,30,0,75,63,-51,56,67,-88,-110,-104,-117,106,3,-107,-27,-92,-36,-24,68,-20,-44,-23,63,49
Nav,24,257,0,11,5,-25,-68,59,94,-64,-30,-90,-23,-44,-11,-13,50,100,22,-61,24,30,0,75,63,-74,56,67,-88,-48,96,116,-107,-13,-78,37,27,-61,-24,60,-24,56,22,-54,-50
Nav,15,257,0,-1,1,-25,-73,95,-35,35,-42,-94,-23,-27,127,-76,-5,85,74,-104,118,6,-12,33,81,-109,-48,116,-127,126,-6,126,-50,108,-36,110,-117,49,-6,-32,31,46,40,86,89
Nav,12,257,1,-1,1,24,75,-64,34,-36,41,93,22,26,0,-76,4,85,74,-26,-120,6,-12,33,81,-107,-48,116,-123,106,6,125,78,-113,35,-111,-113,-13,10,-64,-1,-72,88,-47,-3
Nav,24,257,0,-1,1,26,75,-60,28,35,-58,-94,-111,29,48,-120,-6,-86,-55,-24,84,-7,27,-99,-82,-22,-49,4,97,-104,-63,77,-114,-91,-36,-82,25,42,-1,-1,119,31,-7,-100,-65
Nav,25,1537,0,21,37,28,78,-113,37,5,10,-97,22,-7,34,-127,75,0,-64,77,-21,56,27,-81,-116,79,-88,55,-2,-31,-117,95,-116,0,-128,3,19
Nav,7,1281,0,16,4,59,68,-112,56,114,67,-112,5,-82,-63,-28,10,7,-106,5,0,55,-85,-102,33,64,0,-120,32,-31,3,22,25,57,41,-28,63,-51,75,-111,7,-94,-79,-96,50
Nav,25,1537,0,21,58,61,-66,109,122,44,-60,-7,110,-3,-40,-16,107,0,-64,-69,30,39,0,-99,-87,79,-30,72,48,-10,55,74,-94,0,-128,33,55
Nav,15,257,0,-1,2,-25,-76,63,-93,-79,-75,-94,-23,-77,50,65,116,-33,-61,-117,-14,24,25,-62,-13,-60,1,34,63,-75,-91,126,37,100,-87,-63,118,-38,-112,-93,3,7,99,43,-111
Nav,24,257,0,-1,2,120,75,-63,-46,67,74,93,18,-54,-38,11,-26,55,-79,-98,-66,-25,-30,-48,-26,-91,-118,82,-58,-50,22,-90,74,-121,-69,95,-123,-91,125,-63,-4,-44,96,-36,110
Nav,12,257,0,-1,2,-25,-76,63,35,-77,-75,-94,-23,-37,-114,65,-16,81,31,-21,-13,88,82,4,73,39,-127,-92,62,30,110,-32,-4,125,104,-83,-124,-124,-62,-66,124,-89,-97,35,17
Nav,25,1537,0,21,28,-99,-119,9,28,-9,47,-79,85,18,-102,12,-48,0,-128,59,23,-98,105,-27,-121,-8,-15,88,-39,-122,-99,54,113,0,-64,-43,-115
Nav,25,1537,0,21,28,-99,-119,9,28,-9,47,-79,85,18,-102,12,-48,0,-128,59,23,-33,88,27,-6,-127,93,-8,-1,-77,-93,117,107,0,0,80,28
Nav,7,1281,0,16,5,52,84,-112,56,103,64,-88,5,0,0,0,0,-111,-49,125,46,17,0,3,8,0,-16,-57,63,-1,7,56,0,-1,-16,-121,63,-1,-1,-1,63,-1,-1,-1,63
Nav,25,1537,0,21,1,-101,-43,-98,65,-49,-10,76,-126,33,46,-79,114,0,0,65,37,87,-74,-18,-1,-11,104,114,85,-91,-3,2,-107,0,0,-97,3
Nav,25,1537,0,21,1,-101,-43,-98,65,-49,-10,76,-126,33,46,-79,114,0,0,65,37,-73,-41,-116,-43,9,-5,-63,-115,-39,-13,-83,-121,0,-128,-49,72
Nav,25,1537,0,21,1,-101,-43,-98,65,-49,-10,76,-126,33,46,-79,114,0,0,65,37,-100,-109,-33,-46,-103,28,59,-83,-32,-62,6,105,0,64,66,-103
Nav,15,257,0,-1,3,-8,-76,63,-35,-64,107,93,17,-42,88,0,0,51,92,29,-113,-86,69,-62,-64,-54,56,81,-97,114,110,70,-111,64,-99,-48,-103,-92,23,-10,63,94,125,-125,11
Nav,12,257,0,-1,3,-25,-76,63,-35,59,-108,-94,-23,-61,-55,-25,-1,16,48,97,-55,27,-10,23,60,50,109,70,-51,27,52,95,121,-75,11,-90,-41,-24,-121,21,64,127,-105,-72,15
Nav,24,257,0,-1,3,-25,-76,-64,34,-59,-41,-94,-55,19,42,-62,64,-9,49,84,-44,-88,74,-13,-25,71,85,90,8,16,9,-81,-9,42,17,-110,33,6,124,-24,-65,111,127,-122,-103
Nav,25,1537,0,21,1,-101,-43,-98,65,-49,-10,76,-126,33,46,-79,114,0,0,65,37,-121,50,54,-63,-79,53,-124,15,-17,-7,76,-119,0,64,-29,-14
Nav,7,1281,0,8,1,61,20,-112,56,-86,32,-64,5,53,-123,-2,5,-57,-65,-46,57,-11,-2,115,56,-37,-50,-59,2,-74,-81,-22,14,-93,126,-1,3,-95,-97,-70,5,18,28,67,44
Nav,9,1281,0,31,1,63,20,-28,7,113,127,58,4,52,101,112,50,-15,89,71,42,5,13,44,3,-13,96,60,10,-66,15,108,34,22,-16,-116,49,-26,-37,56,46,23,-112,-102,10
Nav,25,1537,0,21,22,64,-80,71,22,-20,40,-15,63,14,-64,-11,-14,0,-128,61,-102,89,-38,117,-57,-21,105,35,112,-93,-102,93,77,0,-64,-55,99
Nav,25,1537,0,21,22,64,-80,71,22,-20,40,-15,63,14,-64,-11,-14,0,-128,61,-102,-79,-71,-119,-33,-4,18,11,47,67,-38,-121,-14,0,0,80,-60
Nav,25,1537,0,21,22,64,-80,71,22,-20,40,-15,63,14,-64,-11,-14,0,-128,61,-102,-39,-44,1,-69,-120,76,-9,-122,50,127,-4,-86,0,-64,-83,-109
Nav,25,1537,0,21,22,64,-80,71,22,-20,40,-15,63,14,-64,-11,-14,0,-128,61,-102,-14,29,-104,-54,107,-11,91,81,43,-99,-128,-116,0,64,89,-98
Nav,15,257,0,6,4,5,75,32,-93,-76,115,-66,87,40,83,-76,17,26,-126,-33,43,89,41,-21,-105,34,105,-58,120,113,-18,98,-126,1,127,-92,86,62,64,-46,97,35,-79,118,-82
Nav,12,257,1,6,4,-25,-76,63,-35,-53,115,-94,-23,-73,80,-72,-31,-27,-125,47,-38,89,41,-21,107,-51,-108,57,71,-114,-17,98,126,-62,64,43,-87,55,-34,-82,-127,67,11,78,-24
Nav,24,257,0,57,4,24,-117,63,-35,52,-114,-3,14,-73,-88,71,30,-27,3,44,-38,-87,42,-31,85,-15,-21,57,79,113,-112,-110,65,69,-65,-44,86,24,38,-81,113,-108,-107,-88,31
Nav,7,1281,0,105,5,-64,-37,-108,7,11,-91,39,58,79,3,-16,7,-86,95,-17,18,-102,47,-56,40,44,37,43,10,-26,-47,-46,11,-93,-110,-86,61,-78,-112,-36,10,25,37,33,39
Nav,10,1281,0,20,2,63,36,-112,56,14,82,-48,5,51,-121,-28,12,52,-65,-128,7,89,41,-80,7,-1,121,-47,36,-48,-82,-20,7,96,10,-119,63,-61,81,19,39,89,-39,-14,11
Nav,25,1537,0,22,34,-30,-105,-42,34,-67,35,24,-112,13,56,-126,-112,0,-128,-85,58,-112,-30,-37,-23,-62,-28,-44,64,-126,-34,95,-8,0,64,61,-45
Nav,25,1537,0,22,61,29,35,-107,125,-46,104,-43,-41,-76,-64,46,-126,0,0,97,100,-89,-11,-78,-121,117,124,-67,-87,77,83,58,-95,0,0,-10,115
Nav,2,1537,0,22,52,-12,-31,-37,116,-1,-9,100,-29,99,-3,78,48,0,-128,-71,126,-101,54,-119,-122,64,21,-14,-123,43,-5,-97,-92,0,-128,-76,88
Nav,8,1537,0,22,58,-63,-31,-48,122,37,109,90,107,13,37,77,15,0,-64,-63,-63,-52,-63,-81,-47,-19,-76,-124,-12,55,-20,10,27,0,0,61,-115
Nav,15,257,0,9,5,-36,-76,63,-35,-68,-83,93,23,-78,20,106,18,-10,-106,-121,-93,87,-124,38,-116,-123,-81,-11,-21,-31,70,7,126,-69,106,21,95,-124,-6,53,-25,6,16,-23,6
Nav,24,257,0,3,5,-40,-86,76,33,-93,-83,-91,38,-116,26,-27,-64,-7,74,-5,24,57,-66,-76,64,117,84,-65,87,26,85,5,122,-35,-15,-45,-108,76,4,74,93,-92,26,-128,58
Nav,19,257,0,4,5,1,1,1,1,1,1,1,1,1,1,1,1,1,1,1,1,0,0,0,0,-40,89,-74,5,102,-88,-16,18,-48,61,-14,-106,70,-55,-71,57,-96,79,68,-114
Nav,8,1537,0,22,58,-63,-31,-48,122,37,109,90,107,13,37,77,15,0,-64,-63,-63,-86,-50,-33,-117,97,-3,110,-121,-117,63,65,103,0,-64,-113,-75
Nav,22,1281,0,8,3,-35,55,120,29,28,35,12,53,-51,63,-42,60,111,36,-60,24,-26,-50,117,27,2,11,-29,59,31,-9,-57,22,-122,108,-5,60,82,-67,47,0,-70,-5,92,63
Nav,7,1281,0,76,6,28,101,-96,8,75,48,61,59,-49,19,107,15,8,-119,24,20,-127,0,98,19,87,-90,7,10,5,57,-90,57,29,-88,37,3,90,2,-117,20,-101,-35,120,14
Nav,10,1281,0,106,4,66,-49,-1,57,109,-86,-121,61,98,4,32,48,68,120,89,22,-13,51,-30,25,-76,6,-75,1,-26,-86,-28,32,98,-63,-6,17,64,-98,-24,62,-91,-82,-62,27
Nav,25,1537,0,22,29,-77,-15,-1,93,-93,-55,-6,74,100,83,-43,75,0,-64,-90,-81,-70,107,-52,-112,0,-113,114,-99,15,21,122,68,0,64,79,-73
Nav,2,1537,0,22,6,58,22,-20,6,31,111,98,83,69,78,100,-66,0,64,105,64,-114,-115,90,-24,69,-111,47,74,-90,-113,50,-117,0,-64,29,-69
Nav,25,1537,0,22,29,-77,-15,-1,93,-93,-55,-6,74,100,83,-43,75,0,-64,-90,-81,51,110,84,-113,-116,-121,118,33,-102,120,-17,-60,0,0,-114,-121
Nav,8,1537,0,22,3,-90,-36,4,67,109,30,-101,-39,-80,-124,106,58,0,-128,-90,6,72,96,40,-64,70,-31,49,-128,-21,127,18,91,0,-128,41,-120
Nav,25,1537,0,22,29,-77,-15,-1,93,-93,-55,-6,74,100,83,-43,75,0,-64,-90,-81,-40,111,104,-36,-79,110,63,92,-24,117,63,-122,0,64,4,-68
Nav,25,1537,0,22,29,-77,-15,-1,93,-93,-55,-6,74,100,83,-43,75,0,-64,-90,-81,-106,-80,-42,-107,-27,-10,96,49,32,-108,23,-27,0,0,42,73
Nav,2,1537,0,22,20,-50,-104,-29,20,-82,-82,-75,50,-35,-117,-22,-96,0,-128,-7,37,-119,-33,-86,-33,42,-2,-110,-70,33,-115,-49,73,0,-64,-117,-80
Nav,8,1537,0,22,18,76,-53,58,82,-30,10,40,65,77,103,-109,4,0,-64,19,58,17,-10,-36,-123,80,-91,-56,76,-33,-28,60,-119,0,-64,113,-102
Nav,24,257,0,-1,1,24,75,-64,34,-72,-55,93,22,26,0,-76,4,85,74,30,-105,6,12,-34,78,104,47,117,-123,-104,-127,-126,49,78,-36,110,25,42,-3,63,-128,120,27,-100,-67
Nav,19,257,0,-1,1,-128,-104,-112,59,-55,48,38,24,-8,64,-114,79,-86,-34,31,23,-18,-82,78,-90,85,-53,115,-106,-94,35,-11,65,-70,24,40,-76,-53,8,99,-104,-1,-110,-26,-62
Nav,15,257,0,-1,1,16,-90,-25,-114,78,105,42,19,69,-128,-13,-109,-62,-72,-2,88,63,-32,-63,-118,-114,110,87,-6,24,-2,-69,-119,-52,-124,-116,50,-61,28,118,1,-97,-38,-36,-35
Nav,12,257,0,-1,1,1,1,1,1,1,1,1,1,1,1,1,1,1,1,1,1,8,4,0,0,105,46,-85,58,106,-2,3,72,-121,63,-119,-109,5,-11,-63,-21,-69,4,78,92
Nav,2,1537,0,22,37,-113,-49,14,101,48,-63,50,-28,34,55,17,32,0,-64,80,42,53,4,-121,-104,-114,17,-38,-101,101,-55,-126,-17,0,-64,-98,21
Nav,8,1537,0,22,36,117,-84,-116,100,-2,72,-6,-95,-26,28,-84,-37,0,-64,58,105,126,-49,-27,-72,-10,122,-46,87,55,90,109,-53,0,64,56,-83
Nav,22,1281,0,30,4,125,65,-89,27,58,122,16,17,11,36,101,15,66,89,58,53,6,-66,109,11,17,73,-51,37,67,26,123,4,-27,-65,11,21,-23,66,34,50,29,18,43,8
Nav,7,1281,0,117,1,-61,-101,-113,39,14,-44,-99,26,-40,117,-83,11,45,-111,-76,30,-46,2,5,24,-75,-30,109,29,0,96,-74,50,-13,31,55,13,-27,123,-90,58,115,51,-52,30
Nav,10,1281,0,1,4,-25,-52,-54,28,89,6,-40,38,-75,70,61,63,-101,13,-52,2,88,53,105,9,93,-36,81,45,3,77,57,34,-59,40,-75,30,-60,33,-51,37,110,-13,103,24
Nav,9,1281,0,17,4,59,68,-112,8,85,71,18,62,51,2,8,0,0,-16,-121,63,-128,125,-24,1,1,124,-16,1,-1,-8,-29,63,-9,8,96,0,17,68,54,56,-3,79,63,48
Nav,25,1537,0,22,34,120,113,85,98,-78,113,57,-113,-41,18,-46,-78,0,64,-44,-108,71,-75,-69,-32,97,-105,78,46,3,-72,97,78,0,-64,50,71
Nav,2,1537,0,22,37,-113,-49,14,101,48,-63,50,-28,34,55,17,32,0,-64,80,42,55,28,-31,-72,68,-126,112,-60,-127,-85,-123,-122,0,-128,39,14
Nav,8,1537,0,22,36,117,-84,-116,100,-2,72,-6,-95,-26,28,-84,-37,0,-64,58,105,75,81,125,-98,-57,-4,-4,-66,-116,-121,93,36,0,0,18,-10
Nav,8,1537,0,22,36,117,-84,-116,100,-2,72,-6,-95,-26,28,-84,-37,0,-64,58,105,93,-115,-102,-104,34,-86,87,-88,-103,-40,-62,-9,0,-64,40,-109
Nav,8,1537,0,22,36,117,-84,-116,100,-2,72,-6,-95,-26,28,-84,-37,0,-64,58,105,-108,63,-11,-13,86,-42,-72,-30,17,-39,103,127,0,-128,-81,57
Nav,25,1537,0,22,24,125,-86,-48,24,-122,111,-18,-6,-24,109,-83,116,0,64,-10,112,23,-14,15,-4,117,-89,112,-17,77,39,-13,101,0,64,105,-37
Nav,2,1537,0,22,49,-84,-5,23,113,-110,8,123,91,-121,-64,81,-121,0,-64,-47,80,-114,-96,46,-19,127,-23,-13,5,-46,-124,-60,-102,0,-64,-22,-32
Nav,8,1537,0,22,36,117,-84,-116,100,-2,72,-6,-95,-26,28,-84,-37,0,-64,58,105,-105,-10,-90,-83,101,119,-120,-84,-1,-99,-127,50,0,-64,65,-126
Nav,19,257,0,-1,2,63,57,-60,-26,19,-95,98,-48,-114,50,127,-24,119,-34,126,-123,-64,-99,-59,-4,47,-47,-115,6,-92,101,2,-57,-89,8,-23,33,4,-112,28,-45,25,63,-35,31
Nav,15,257,0,-1,2,-48,43,11,-3,89,-118,101,5,66,31,42,102,-84,80,-4,-94,-47,-79,73,29,-31,-5,-34,125,-10,-31,-1,77,90,61,-82,-68,17,-106,-15,-65,-106,-27,64,80
Nav,12,257,0,-1,2,-119,4,-47,-36,23,67,-19,103,-63,-98,-121,-50,39,-29,-22,97,83,83,84,-55,-44,-2,123,-63,-31,-111,31,3,117,104,-78,68,-68,66,65,115,-85,-97,35,45
Nav,24,257,0,-1,2,-25,84,-64,34,47,29,-94,-23,-87,-98,113,-26,-15,115,87,112,17,-34,55,121,-91,126,115,113,-50,49,-14,117,121,104,64,-99,90,-63,-66,124,43,-97,51,-111
Nav,8,1537,0,22,36,117,-84,-116,100,-2,72,-6,-95,-26,28,-84,-37,0,-64,58,105,-48,-81,-117,-7,124,52,-39,40,-28,49,95,-32,0,-64,13,40
Nav,2,1537,0,22,23,78,35,78,87,32,-19,5,27,63,-86,-17,-91,0,64,-41,-16,-66,49,-5,-97,-8,84,102,98,103,123,98,43,0,-128,35,73
Nav,22,1281,0,5,5,1,80,-101,56,-80,20,0,47,20,-109,-24,36,-57,-51,61,63,-122,14,104,17,64,-106,-126,2,-78,-70,69,36,-96,82,-85,53,-24,-123,17,38,125,-41,89,57
Nav,7,1281,0,116,4,-54,-55,-81,14,-114,-48,97,8,-3,-106,88,6,127,-65,-5,12,-9,-54,51,14,-18,-5,-55,62,112,-122,86,34,0,120,-32,1,22,125,-47,27,93,-14,-121,59
Nav,25,1537,0,22,25,-85,-36,-25,89,109,7,82,-114,23,-28,-53,62,0,-64,77,107,-59,-108,-44,-86,2,94,-59,71,80,78,101,-65,0,-64,84,-9
Nav,25,1537,0,22,25,-85,-36,-25,89,109,7,82,-114,23,-28,-53,62,0,-64,77,107,116,66,25,-84,79,-10,1,-60,95,-98,-127,-13,0,0,-1,-24
Nav,2,1537,0,22,28,114,-112,-29,28,29,77,28,21,49,80,-44,28,0,-64,-87,-17,52,-103,48,-109,-96,15,82,-84,-17,-78,17,24,0,-128,-79,40
Nav,8,1537,0,22,48,72,121,90,112,10,-80,-95,-6,-9,85,79,101,0,32,118,89,56,-94,-107,-16,-45,31,-65,60,-103,-87,90,112,0,64,-7,32
Nav,8,1537,0,22,48,72,121,90,112,10,-80,-95,-6,-9,85,79,101,0,32,118,89,100,-7,18,-91,-119,22,-105,95,-7,-32,112,14,0,64,-52,72
Nav,25,1537,0,22,37,-35,41,-21,37,58,67,-6,121,73,18,-56,84,0,64,65,-127,70,69,44,-5,50,-65,46,113,94,-40,-33,49,0,64,27,-3
Nav,2,1537,0,22,42,84,40,-51,106,-37,39,-68,-10,42,-5,-80,120,0,64,-16,-99,-128,-119,-112,-81,39,-128,-11,-82,-124,76,-115,-44,0,-64,85,-73
Nav,15,257,0,-1,3,-37,91,115,-83,44,22,-40,-48,-33,-82,78,28,65,59,-39,-11,-89,-112,66,126,-33,71,98,-2,108,-119,-102,-4,56,12,-95,26,-117,23,-23,63,-36,-70,60,-12
Nav,6,769,0,2,1,85,-9,54,0,-45,-48,-63,1,-124,80,32,0,0,-128,0,1
Nav,12,257,0,-1,3,-25,-60,-65,-34,-68,-117,-95,-36,60,54,24,63,80,63,121,9,117,22,23,0,76,-107,121,77,-27,-12,-112,22,-12,116,120,80,16,120,-22,63,127,-105,-72,15
Nav,24,257,0,-1,3,24,75,48,-35,-68,11,-66,25,-20,-41,45,0,71,-50,-85,43,87,-74,12,-64,71,85,-82,-9,19,121,-80,-9,-38,46,22,-34,87,124,-24,-65,-80,-128,-72,-39
Nav,19,257,0,-1,3,-72,-7,-123,67,-19,22,-25,16,55,100,10,113,56,-75,-67,-64,-37,-67,1,48,54,92,53,-57,46,2,107,-99,39,86,-54,-122,127,-63,-4,-46,55,63,-25,-53
Nav,2,1537,0,23,42,84,40,-51,106,-37,39,-68,-10,42,-5,-80,120,0,64,-16,-99,-44,-116,-3,-114,-44,-123,75,72,-107,123,-17,74,0,-64,-65,106
Nav,8,1537,0,23,22,29,-40,-32,86,59,49,52,-37,70,-7,-64,-122,0,-128,-37,-15,-36,-5,-82,-57,-116,-38,-40,23,33,122,63,122,0,64,74,4
Nav,25,1537,0,23,18,-53,-48,-98,82,81,82,103,-92,42,-84,94,-33,0,-64,-5,1,1,60,70,-58,6,-33,-11,-49,73,37,61,-44,0,0,-13,-37
Nav,8,1537,0,23,22,29,-40,-32,86,59,49,52,-37,70,-7,-64,-122,0,-128,-37,-15,102,3,45,-27,106,-120,-32,19,-105,-87,74,16,0,0,-27,-59
Nav,22,1281,0,38,5,-47,-38,-90,39,43,-103,-110,14,-72,107,-22,16,100,-65,-80,15,125,-36,-58,63,-82,1,-72,17,66,79,19,58,-58,-94,72,13,109,-122,-37,34,43,36,64,9
Nav,6,769,0,2,2,-112,58,20,0,27,-26,-13,0,-42,21,61,0,0,28,21,0
Nav,7,1281,0,22,1,125,-105,111,3,-119,91,-46,7,116,43,-97,42,26,-24,104,3,-75,-80,-119,17,60,70,-40,46,72,80,26,9,-125,25,-27,14,-110,-77,44,21,19,67,52,18
Nav,25,1537,0,23,18,-53,-48,-98,82,81,82,103,-92,42,-84,94,-33,0,-64,-5,1,-22,-89,-93,-28,-15,-63,-110,-108,59,-72,-68,103,0,64,93,-72
Nav,2,1537,0,23,51,-20,-120,11,115,25,122,34,38,79,-46,68,78,0,64,118,-76,-7,-119,-78,-34,96,-116,-18,38,-121,12,103,-110,0,-64,-31,36
Nav,2,1537,0,23,51,-20,-120,11,115,25,122,34,38,79,-46,68,78,0,64,118,-76,-111,-3,29,-91,84,79,-2,-39,29,104,-118,4,0,-128,-128,101
Nav,6,769,0,2,3,1,90,56,0,-114,78,-44,0,27,95,-82,1,0,-124,-116,1
Nav,25,1537,0,23,15,-25,116,-6,15,118,115,-52,115,-8,125,126,-8,0,0,-11,-76,123,106,35,-34,94,12,-14,98,0,-54,-111,-89,0,-128,-77,-69
Nav,8,1537,0,23,49,-38,-18,87,113,119,-86,-104,-5,-14,-80,-97,-13,0,0,35,-36,59,-61,-38,-40,111,58,14,-128,127,60,57,-38,0,-64,-22,71
Nav,8,1537,0,23,49,-38,-18,87,113,119,-86,-104,-5,-14,-80,-97,-13,0,0,35,-36,16,-26,102,-58,-2,104,-1,127,113,37,-111,-95,0,-128,-17,124
Nav,15,257,0,54,4,-17,-78,-1,59,26,59,-67,-46,115,71,-98,-67,-93,-128,-6,-27,117,25,12,-24,84,67,41,98,-102,27,44,37,-115,66,-109,-93,-35,-6,22,71,-16,-24,26,112
Nav,6,769,0,2,4,101,-120,92,0,3,-70,66,0,71,-119,48,1,0,-88,65,0
Nav,12,257,0,62,4,103,-92,59,-29,-8,44,94,-12,14,7,-83,31,-82,-111,-67,-70,-49,-117,50,-83,-27,67,46,-63,-26,-28,42,121,48,-127,2,-84,-66,65,-73,55,50,126,-89,-79
Nav,24,257,0,1,4,31,75,66,34,-13,-48,-31,-23,6,119,81,-32,29,-121,-127,-70,-64,-53,13,120,101,-76,41,62,34,-28,37,121,13,-127,2,-84,-34,2,23,70,-68,-128,-72,-111
Nav,19,257,0,1,4,-18,-82,35,-42,-1,79,85,-107,-122,-128,80,-16,-111,-121,-11,-70,-60,-79,-11,112,-80,-2,-15,35,-49,52,-41,0,-115,126,126,-45,-113,-52,21,69,-72,126,95,-10
Nav,25,1537,0,23,58,84,-32,-59,122,82,-12,74,-98,70,-18,-17,-95,0,64,61,-12,7,-90,50,-16,-82,-7,102,67,-52,-110,34,99,0,64,102,-66
Nav,2,1537,0,23,36,27,75,-4,100,-121,-10,-82,79,50,-90,1,55,0,-64,-122,58,-119,-53,72,-108,22,93,-47,124,-98,-9,105,-77,0,-128,108,-118
Nav,8,1537,0,23,49,-38,-18,87,113,119,-86,-104,-5,-14,-80,-97,-13,0,0,35,-36,-34,-27,58,-112,43,-85,-5,62,58,-2,49,-26,0,0,29,-122
Nav,25,1537,0,23,58,84,-32,-59,122,82,-12,74,-98,70,-18,-17,-95,0,64,61,-12,-109,-19,-125,-99,-13,-2,50,-64,119,-79,-15,-56,0,-64,-76,-87
Nav,8,1537,0,23,49,-38,-18,87,113,119,-86,-104,-5,-14,-80,-97,-13,0,0,35,-36,-90,-51,17,-43,-12,-72,-31,23,-47,88,-115,-115,0,0,46,-117
Nav,6,769,0,2,5,92,12,-62,0,-91,-128,-92,1,1,32,122,0,0,-84,96,1
Nav,22,1281,0,1,6,-60,98,20,27,-96,5,22,2,1,-11,45,15,-20,-18,-99,47,-36,33,74,17,0,-78,124,12,98,-58,104,41,39,42,71,27,55,121,-32,15,31,124,-25,12
Nav,9,1281,0,25,2,63,-92,96,24,-52,101,-56,5,50,32,5,17,72,125,-110,4,-64,14,-12,24,-39,-100,0,60,-9,-76,-18,6,120,66,84,60,-126,-47,119,32,-69,-122,25,27
Nav,7,1281,0,61,4,48,-60,-113,63,-111,-12,-116,53,43,-17,7,56,2,50,39,33,-38,95,42,1,31,-49,-49,57,70,-88,62,34,28,58,-86,31,9,77,-1,48,29,-53,-54,56
Nav,8,1537,0,23,49,-38,-18,87,113,119,-86,-104,-5,-14,-80,-97,-13,0,0,35,-36,61,-111,7,-94,30,113,-124,81,-8,45,50,-74,0,-64,16,31
Nav,25,1537,0,23,37,-13,84,56,101,20,-53,-37,-122,84,78,87,105,0,0,-25,89,-127,30,12,-102,50,6,46,-76,25,85,-90,-89,0,-128,-126,-73
Nav,2,1537,0,23,59,106,99,-28,123,83,122,-31,104,-103,-33,17,60,0,-64,0,-68,-18,-104,81,-44,39,-104,39,57,37,-75,-98,-83,0,0,-103,83
Nav,6,769,0,2,6,89,61,-25,0,64,24,19,0,60,-31,48,0,0,0,-87,1
Nav,2,1537,0,23,59,106,99,-28,123,83,122,-31,104,-103,-33,17,60,0,-64,0,-68,-125,119,-45,-9,29,21,-77,-111,-45,95,-79,102,0,0,-29,42
Nav,2,1537,0,23,59,106,99,-28,123,83,122,-31,104,-103,-33,17,60,0,-64,0,-68,-2,117,-79,-1,-62,37,63,12,-26,43,86,-29,0,-128,32,-76
Nav,8,1537,0,23,37,105,-14,15,37,3,103,98,-127,-17,-117,-65,112,0,0,42,55,49,61,106,-27,-101,-20,-114,126,-111,-46,-27,94,0,64,-120,114
Nav,15,257,0,38,5,100,-120,-64,60,-85,-93,-71,41,-38,-62,-113,-39,-46,108,1,-113,-38,-65,-112,-66,-121,84,-11,-85,87,-28,51,-50,93,-49,88,-9,16,115,4,77,-93,-105,6,0
Nav,6,769,0,2,7,0,94,114,0,-62,79,-110,1,-108,11,-102,0,0,-112,-29,0
Nav,12,257,0,51,5,56,75,63,-115,102,78,66,20,-36,52,-20,-84,-10,-115,68,16,-34,79,72,-113,-51,24,-93,-83,-107,33,51,118,110,-60,31,124,-22,77,-52,-121,15,-52,-52,-114
Nav,24,257,0,12,5,24,75,-64,34,118,-78,97,22,-68,54,16,-109,41,-113,-59,24,-2,-65,-80,64,-101,-38,76,-88,-107,20,-52,-55,-39,-49,25,116,20,-118,-1,101,-52,-3,63,2
Nav,2,1537,0,23,59,106,99,-28,123,83,122,-31,104,-103,-33,17,60,0,-64,0,-68,125,101,8,-2,-123,32,-34,-29,-67,-111,-91,126,0,-64,35,-30
Nav,8,1537,0,23,37,105,-14,15,37,3,103,98,-127,-17,-117,-65,112,0,0,42,55,-79,74,6,-93,67,-35,-96,25,-20,-110,-86,-37,0,-64,-31,-96
